CUL	LONGITUDE	LATITUDE	NAME
76213	17.0436099	43.8111362	Begovača
76204	18.3500217	43.6758105	Bijela
76000	18.8073382	44.8743155	Brčko
76120	18.8073382	44.8743155	Brčko
76216	19.0429976	44.1473995	Brezovo Polje
76206	18.645156	44.7707976	Brka
76217	18.0070452	45.1423828	Brod
76203	18.046731	44.6790681	Bukvik
76215	18.6083197	44.5072223	Cerik
76207	18.6929474	44.7814818	Gornji Rahić
76214	18.1717255	43.7777234	Gornji Zovik
76212	18.7227542	44.9280443	Krepšić
76208	18.6577265	44.768707	Maoča
76218	18.9078822	44.7925327	Ražljevo
76209	19.0356725	43.8400299	Šatorovići
76205	18.60825	44.80096	Seonjaci
76211	19.1153088	44.4296545	Ulice
73000	18.9765501	43.6673112	Goražde
73101	18.9765501	43.6673112	Goražde
73208	17.6699597	44.2231534	Ilovača
73206	18.9407231	43.628496	Mravinjac
73202	19.0883583	43.6911634	Ustiprača
73205	18.96749139	43.6307752	Vitkovići
88363	18.1626181	43.0947534	Berkovići
88268	17.782672	43.203161	Biletici Polje
88407	18.230465	43.540079	Bjelimići
88201	17.8904391	43.2575855	Blagaj
88263	17.8248553	44.4799718	Blatnica
88405	18.028628	43.5511689	Boračko Jezero
88365	18.1787091	44.9602507	Borojevići
88408	18.0187127	43.7448719	Bradina
88393	17.7766138	42.9954427	Brštanica
88202	17.8665337	43.2471257	Buna
88366	17.9490684	43.0183589	Burmazi
88409	17.8185505	43.729033	Buturović Polje
88300	17.7051041	43.113402	Čapljina
88404	17.899214	43.6847037	Čelebići
88265	17.6414199	43.2727063	Čerin
88106	17.7820412	43.3518014	Cim
88260	17.6963313	43.2267192	Čitluk
88367	18.0028043	43.9033036	Crnići
88305	17.780462	43.1361544	Domanovići
88215	17.7728378	43.4970166	Drežnica
88306	18.8550174	44.8321766	Gabela
88406	18.1041299	43.5040612	Glavatičevo
88422	17.7630093	43.6202055	Glogošnica
88443	17.6844748	43.7294756	Gračac
88392	19.3214472	44.1765151	Gradac
88205	16.95715142	43.82422115	Guber
88368	17.9251956	43.1509631	Hodovo
88395	18.37819066	43.8482202	Hrasno
88394	17.8023493	42.9565933	Hutovo
88420	17.1142595	45.0955658	Jablanica
88400	17.9624801	43.6534733	Konjic
88203	17.8769975	43.0695164	Kruševo
88380	18.0897048	42.9509792	Ljubinje
88266	17.6767481	43.1913572	Međugorje
88000	17.8030427	43.3416104	Mostar
88103	17.8030427	43.3416104	Mostar
88104	17.8030427	43.3416104	Mostar
88108	17.8030427	43.3416104	Mostar
88110	17.8030427	43.3416104	Mostar
88390	17.6186086	42.9248897	Neum
88423	17.1854826	43.6883362	Ostrožac
88403	17.9941732	43.7016655	Podorašac
88206	17.9118093	43.3083484	Podvelež
88402	17.9735051	43.6366575	Polje Bijela
88208	18.2470269	43.667053	Potoci
88204	17.447497	43.1836122	Prolog
88440	17.6076793	43.8230831	Prozor-Rama
88370	17.9650879	42.887534	Ravno
88213	17.8577044	43.4419077	Salakovac
88446	17.7423781	43.8236343	Šćipe
88445	17.8107972	43.919238	Šćit
88360	17.8242823	43.3440981	Stolac
88307	17.7105907	43.0676372	Višići
88113	17.8504501	43.3746405	Vrapčići
88369	18.0207411	43.0213805	Žegulja
88268	17.782672	43.203161	Biletici Polje
76277	18.6242578	45.0064071	Bok
74450	18.0070452	45.1423828	Bosanski Brod
74459	18.7851651	44.6887644	Brusnica Velika
74473	18.4109831	45.0759906	Donja Dubica
76274	16.6705037	44.9567947	Donja Mahala
74477	18.273051	45.1099408	Donji Svilaj
74454	18.0272449	45.0860828	Kolibe Gornje
74456	17.9293693	45.0578713	Koraće
76276	18.6616515	45.0259399	Kostrč
74453	18.0739449	45.0972917	Liješće
76278	17.9165125	44.6860409	Lončari
76271	18.6533489	45.0053323	Matići
74475	16.3797167	45.0476367	Novi Grad
74457	19.1192376	44.3287652	Novo Selo
74470	18.3269719	45.0125273	Odžak
76270	18.6951811	45.0340351	Orašje
76279	18.57863654	45.0015795	Oštra Luka
74458	17.9782786	45.1169807	Sijekovac
76272	18.338601	44.9011721	Tolisa
76275	18.7293648	44.9832861	Vidovice
74455	18.0960005	45.0647498	Vinska
76273	18.66497154	44.9659666	Žabar Donji
71215	17.2203809	43.7317374	Blažuj
71221	18.3409666	43.6869755	Dejčići
71223	18.5340417	43.6883234	Delijaš
71240	18.2025181	43.8226456	Hadžići
71322	18.3731638	43.8996473	Hotonj
71212	17.5491185	43.9697517	Hrasnica
71210	18.3063998	43.8314309	Ilidža
71213	18.3863941	43.7978393	Kasindo
71222	16.7314825	44.728122	Kijevo
71323	18.2219444	42.98	Kobilja Glava
71243	18.1520712	43.7874012	Pazaric
71217	16.9450413	45.1061289	Rakovica
71000	18.3866868	43.8519774	Sarajevo
71101	18.3866868	43.8519774	Sarajevo
71101	18.3866868	43.8519774	Sarajevo
71103	18.3866868	43.8519774	Sarajevo
71104	18.3866868	43.8519774	Sarajevo
71106	18.3866868	43.8519774	Sarajevo
71107	18.3866868	43.8519774	Sarajevo
71108	18.3866868	43.8519774	Sarajevo
71120	18.3866868	43.8519774	Sarajevo
71120	18.3866868	43.8519774	Sarajevo
71122	18.3866868	43.8519774	Sarajevo
71122	18.3866868	43.8519774	Sarajevo
71122	18.3866868	43.8519774	Sarajevo
71123	18.3866868	43.8519774	Sarajevo
71124	18.3866868	43.8519774	Sarajevo
71125	18.3866868	43.8519774	Sarajevo
71140	18.3866868	43.8519774	Sarajevo
71141	18.3866868	43.8519774	Sarajevo
71142	18.3866868	43.8519774	Sarajevo
71160	18.3866868	43.8519774	Sarajevo
71161	18.3866868	43.8519774	Sarajevo
71162	18.3866868	43.8519774	Sarajevo
71163	18.3866868	43.8519774	Sarajevo
71166	18.3866868	43.8519774	Sarajevo
71166	18.3866868	43.8519774	Sarajevo
71167	18.3866868	43.8519774	Sarajevo
71211	18.3866868	43.8519774	Sarajevo
71219	18.3866868	43.8519774	Sarajevo
71321	18.3159174	43.9210081	Semizovac
71218	18.3155943	43.8136895	Sokolović Kolonija
71244	18.0949482	43.7941761	Tarčin
71220	18.4457483	43.6651505	Trnovo
71320	18.3429351	43.9023528	Vogošća
72286	17.57839749	44.3119343	Babanovac
72256	17.7595627	44.1795583	Bila
71255	18.0235889	44.0038431	Brestovsko
72295	17.3744481	44.3407632	Bučići
70230	17.4509043	44.0558542	Bugojno
72260	17.879696	44.096806	Busovača
70204	17.3266609	44.3668247	Divičani
72278	17.6935631	44.2182018	Dolac na Lašvi
70220	17.3984734	44.1446382	Donji Vakuf
70237	17.4519238	44.1016878	Drvetine
71270	17.8997641	43.9631837	Fojnica
71275	17.9463765	43.9137052	Gojevići
70240	17.58496717	43.9383838	Gornji Vakuf
70233	18.3073775	44.699376	Gračanica
72277	17.7267542	44.2430798	Guča Gora
72281	17.7588277	44.238116	Han Bila
70000	17.2705155	44.3395173	Jajce
70206	18.8019203	44.4917071	Jezero
72264	17.9391736	44.0659569	Kačuni
72265	17.8854052	44.1269784	Kaonik
70235	17.4303067	44.0678498	Karadže
72284	18.7087759	44.511002	Karaula
71260	18.0486381	43.8683908	Kreševo
72253	17.8005887	44.1408485	Kruščica
72282	17.9309982	44.0499969	Mehurići
72276	17.7349365	44.1961743	Nova Bila
72290	17.6576521	44.1707502	Novi Travnik
70225	17.4186313	44.1950194	Oborci
72293	17.6419727	44.0972184	Opara
70243	17.5279663	43.9751896	Pajić Polje
72252	17.8388056	44.1725193	Počulica
70223	17.3727432	44.0984545	Prusac
72251	17.7879327	44.1580696	Stari Vitez
70224	17.3118018	44.2310277	Torlakovac
72270	17.6661738	44.2259454	Travnik
72273	17.6661738	44.2259454	Travnik
72274	17.6661738	44.2259454	Travnik
72283	18.4029707	43.7629262	Turbe
70240	17.58496717	43.9383838	Gornji Vakuf
70234	17.4244729	44.0343434	Vesela
70202	17.2814065	44.2702532	Vinac
72250	17.791462	44.150409	Vitez
70246	19.3299175	43.6448359	Voljevac
70247	17.5211323	43.9092259	Voljice
75290	18.5252473	44.4056526	Banovići
75322	18.2337362	44.6843806	Boljanić
75325	18.361797	44.627319	Bosansko Petrovo Selo
75203	18.6061045	44.5264236	Bukinje
75246	18.8200011	44.722508	Čelić
75328	18.3909574	44.7539882	Doborovci
75206	18.6826224	44.5925889	Dokanj
76257	18.4044521	44.8025887	Donja Međiđa
75358	17.4141669	43.9607852	Duboki Potok
75308	18.320553	44.2395477	Duboštica
75274	18.6790533	44.4827446	Dubrave Donje
75273	18.72714918	44.45848835	Dubrave Gornje
75309	18.4415679	44.6084688	Gnojnica
75208	18.761327	44.5576955	Gornja Tuzla
75271	18.6096462	44.4384167	Gornje Živinice
75320	18.3073775	44.699376	Gračanica
75276	18.5024108	43.1804385	Gračanica Selo
76250	18.4262247	44.8778264	Gradačac
75244	18.6948053	44.6890208	Humci
75216	18.6144956	44.5141931	Husino
75260	18.8764839	44.4450549	Kalesija
75211	18.0782775	43.9438172	Kiseljak
75280	18.6937539	44.2259412	Kladanj
75247	18.8801473	44.7086565	Koraj
75213	18.0137475	42.9231079	Lipnica
75214	18.6004057	44.490397	Ljubače
75240	18.844268	44.6354188	Lopare
75293	18.3498309	44.4376937	Lozna
75300	18.5269884	44.5333718	Lukavac
75301	18.52747114	44.54089625	Lukavac Mjesto
75327	18.1182655	44.7948537	Lukavica
75326	19.0672168	44.4928513	Malešići
75267	17.2346617	44.6616106	Memići
75269	18.2096365	43.6177956	Međeđa
76257	18.4044521	44.8025887	Donja Međiđa
75329	18.4049189	44.6180637	Miričina
75212	17.7843954	42.9873224	Mramor
75323	18.3714093	44.6467057	Orahovica Donja
76256	18.6113927	44.9067746	Pelagićevo
75355	18.5899513	44.6366374	Podorašje
75303	16.606211	44.2972637	Poljice
75249	18.8899154	43.7477749	Priboj
75304	18.4949873	44.5110918	Prokosovići
75305	18.478079	44.5453026	Puračić
75268	18.8136601	44.4675625	Rainci Gornji
75275	17.8135042	44.3593841	Šerići
75245	18.7565201	44.7297661	Šibošnica
75207	18.7430951	44.5266775	Simin Han
75353	18.4250975	44.7292862	Sladna
75356	18.4970896	44.7387846	Špionica
75350	18.4914812	44.7039779	Srebrenik
76258	18.4742995	44.7922476	Srnice
75324	18.2591978	44.7139759	Stjepan Polje
75283	18.8875769	44.2476631	Stupari
75357	18.6107637	44.6189708	Tinja
75265	18.7877369	44.4796859	Tojšići
76255	18.5020891	44.9127749	Tramošnica
76253	18.5251778	44.881105	Turić
75306	15.8317829	44.8731408	Turija
75000	18.675193	44.5391105	Tuzla
75101	18.675193	44.5391105	Tuzla
75103	18.675193	44.5391105	Tuzla
75104	18.675193	44.5391105	Tuzla
75105	18.675193	44.5391105	Tuzla
75106	18.675193	44.5391105	Tuzla
75107	18.675193	44.5391105	Tuzla
75108	18.675193	44.5391105	Tuzla
75109	18.675193	44.5391105	Tuzla
75307	18.3199976	44.569755	Vasiljevci
75248	18.7533683	43.9310128	Vražići
76254	18.4897206	44.8071725	Vučkovci
76259	18.3036439	44.8217538	Zelinja
75270	18.6501306	44.451574	Živinice
75272	18.6665	44.4053656	Ðurđevik
77246	16.6938884	44.8158333	Arapuša
77000	15.8690863	44.8146409	Bihać
77101	15.8690863	44.8146409	Bihać
77103	15.8690863	44.8146409	Bihać
77104	15.8690863	44.8146409	Bihać
77105	15.8690863	44.8146409	Bihać
77106	15.8690863	44.8146409	Bihać
77240	16.1528053	44.8840208	Bosanska Krupa
77250	16.369403	44.5560108	Bosanski Petrovac
77256	16.5792045	44.549017	Bravsko
77205	15.8865129	44.8829866	Brekovica
79269	16.4285497	44.8833743	Budimlić Japra
77245	16.0316808	45.0625034	Bužim
77220	15.9418198	44.9663757	Cazin
77226	15.89364	44.9783944	Ćoralići
77242	17.7532443	43.2542708	Dobro Selo
79266	16.5661539	44.7923346	Donji Kamengrad
79289	16.8314833	44.3684789	Donji Vrbljani
79264	16.5114687	44.7900665	Fajtovci
77222	15.9526432	45.0094414	Gornja Koprivna
79288	16.8178684	44.4195055	Gornji Ribnik
77208	15.7792384	44.876441	Izačić
77247	17.8060326	43.2757122	Jasenica
77241	16.0904626	44.9790882	Jezerski
77204	19.0253017	44.3194938	Kamenica
79280	16.7752127	44.5333028	Ključ
77249	16.0268528	45.0116769	Konjoder
79284	16.7429513	44.5960852	Krasulje
77253	16.2255311	44.6876805	Krnjeuša
77206	16.0886124	44.5626583	Kulen Vakuf
79267	16.4310366	44.7461652	Lušci Palanka
77235	15.8564897	45.1321948	Mala Kladuša
77258	16.4156108	44.476087	Oštrelj
77228	17.1854826	43.6883362	Ostrožac
77244	19.3113637	44.7182279	Otoka
77273	16.305487	44.2453042	Peći
77227	15.8950574	45.0544865	Pećigrad
77248	16.0845095	44.9404865	Pištaline
77232	15.8611354	45.1794368	Podzvizd
77209	15.880711	44.8528543	Pokoj
77215	15.9541097	44.765354	Ripač
79285	16.6271573	44.6232627	Sanica Gornja
79260	16.6656827	44.7651882	Sanski Most
79283	16.9335498	44.5222149	Sitnica
79268	16.605865	44.8291443	Stari Majdan
77224	16.0204334	44.9422428	Stijena
77223	15.7842652	45.0591921	Šturlić
77234	15.8574447	45.1009431	Šumatac
77233	15.9297397	45.0845465	Todorovo
79265	16.7321825	44.7017426	Tomina
77225	15.7842133	44.9753921	Tržačka Raštela
77243	16.018905	45.090317	Varoška Rije
77207	18.0003428	44.9122085	Velika Gata
77230	15.8070634	45.1854105	Velika Kladuša
77231	15.9536501	45.1627966	Vrnograč
77203	15.8335785	44.8901059	Vrsta
77254	19.0550882	44.1774627	Vrtoče
77236	18.6630822	44.6373034	Zborište
88243	17.3942986	43.4603987	Bročanac
88343	17.4895132	43.3478849	Donji Mamići
88344	17.3246873	43.359454	Drinovci
88342	17.5154422	43.3565474	Dužice
88340	17.4146691	43.3723392	Grude
88224	17.6499482	43.3298381	Jare
88324	18.033044	43.5734106	Klobuk
88226	17.4858427	43.3900351	Kočerin
88320	17.540558	43.1904758	Ljubuški
88223	17.7152132	43.3035652	Ljuti Dolac
88240	17.32383438	43.48583965	Posušje
88325	17.5465679	43.2210036	Radišići
88245	17.4272283	43.5501142	Rakitno
88347	17.1196415	44.908069	Ružići
88220	17.5929153	43.3831944	Široki Brijeg
88345	18.7977167	43.9350525	Sokolac
88345	18.7977167	43.9350525	Sokolac
88323	17.602468	43.175695	Studenci Ljub
88348	17.3601631	43.3193061	Tihaljina
88247	17.20174514	43.52499825	Vir
88326	17.4773288	43.2403439	Vitina
80329	17.8904391	43.2575855	Blagaj
71271	17.2203809	43.7317374	Blažuj
80275	18.96389	44.79583	Bosanski Crni Lukavac
80270	16.36568	44.1808174	Bosansko Grahovo
80211	16.7514157	43.9477073	Čelebić
80260	16.3827291	44.374769	Drvar
80230	16.8497438	44.0449478	Glamoč
80212	16.6562697	43.9468783	Gubin
80246	17.0155495	43.6138067	Kazaginac
80244	17.3292357	43.6477265	Kongora
80320	17.2784291	43.9923541	Kupres
80204	16.7704676	43.8762223	Lištani
80101	17.0042416	43.8259136	Livno
80203	16.8153226	43.9021947	Lusnić
80265	16.1422134	44.4882965	Martin Brod
80243	17.2856106	43.576556	Mesihovina
80233	18.3269719	45.0125273	Odžak
80206	16.8569166	43.7746033	Orguz
80273	16.305487	44.2453042	Peći
80209	16.9998164	43.7227257	Podhum
80201	18.9971499	44.4328032	Potočani
80263	16.5394777	44.3177475	Prekaja
80274	16.5827256	44.2102434	Preodac
80202	16.9178085	43.8738268	Priluka
80245	18.9970437	43.6349514	Prisoje
80247	17.165383	43.58151	Raško Polje
80326	17.2645876	43.9130287	Rilić
80235	16.6660795	44.2220907	Rore
80237	19.1837499	44.5886122	Staro Selo
80249	17.1786873	43.8502007	Šuica
80240	17.22743741	43.71960385	Tomislavgrad
80267	16.1868095	44.4287387	Veliki Cvjetnić
80208	17.0275955	43.7697768	Vidoši
72207	17.3570108	44.2148743	Babino
72233	17.9944843	44.3538812	Begov Han
71253	18.0018167	44.0241059	Bilalovac
72248	18.0019543	44.1356824	Bilješevo
71370	18.2608208	44.0183108	Breza
72243	18.1217904	44.2305058	Brnjic
72224	18.895306	43.3621765	Čardak
72246	18.4185843	44.3555231	Ćatići
71305	18.1406618	44.0267965	Donje Moštre
74258	18.1646443	44.5037152	Globarica
72225	19.0771778	44.4351591	Hajdarevići
72245	18.1610872	44.0978496	Haljinići
71254	18.07519	44.0018	Homoljska Cuprija
71380	18.267137	43.9600123	Ilijaš
74256	17.1142595	45.0955658	Jablanica
72215	17.8096031	43.2392189	Janjići
74264	18.6846079	44.4158539	Jelah
72240	18.1169641	44.1275341	Kakanj
74268	17.8989158	44.6548597	Kalošević
71250	18.0782775	43.9438172	Kiseljak
74253	18.0940258	44.6193985	Kosova
72226	18.1455731	43.8964931	Kovači
72244	18.2011378	44.1194997	Kraljeva Sutjeska
72216	17.9434203	44.127575	Lašva
71254	18.07519	44.0018	Homoljska Cuprija
74250	18.0974771	44.5484095	Maglaj
72212	17.9136318	44.3314455	Nemila
71383	18.4809623	44.0610997	Nišići
74254	18.0263294	44.5090379	Novi Šeher
71334	17.7144362	42.9740573	Okruglica
71340	18.580233	44.1269033	Olovo
72238	18.0477627	44.4724523	Ozimica
74255	18.1614835	44.6256017	Paklenica
71387	18.2604096	43.9695978	Podlugovi
72207	17.3570108	44.2148743	Babino
71385	18.7171348	43.7204187	Srednje
72209	17.838256	44.2311276	Stranjani
74260	17.9862488	44.6133803	Tešanj
74266	17.9612027	44.6077534	Tešanjka
72213	17.932343	44.3557231	Topcic Polje
71330	18.3276571	44.1619839	Vareš
71333	18.3158894	44.1354938	Vareš Majdan
71300	18.1785776	43.9905021	Visoko
74265	17.8695	44.6835	Vitkovci Donji
72227	18.3524413	44.3841558	Vozuća
72220	18.1456919	44.4399853	Zavidovići
72236	17.9347959	44.4100258	Željezno Polje
72000	17.9080954	44.200713	Zenica
72001	17.9080954	44.200713	Zenica
72101	17.9080954	44.200713	Zenica
72102	17.9080954	44.200713	Zenica
72104	17.9080954	44.200713	Zenica
72105	17.9080954	44.200713	Zenica
72106	17.9080954	44.200713	Zenica
72108	17.9080954	44.200713	Zenica
72109	17.9080954	44.200713	Zenica
72112	17.9080954	44.200713	Zenica
72230	18.037904	44.4239617	Žepce
71373	18.2728204	43.9900422	Župča
78000	17.1898929	44.7719817	Banja Luka
74273	17.8784017	44.5892608	Banja Vrućica
70267	16.9740361	44.3233937	Baraći
70262	17.1506693	44.4365206	Bjelajce
74275	17.8248553	44.4799718	Blatnica
79240	16.8076706	45.1793231	Bosanska Dubica
78400	17.2521619	45.1462208	Bosanska Gradiška
79224	16.5443663	45.2159164	Bosanska Kostajnica
78255	17.317046	44.967951	Bosanski Aleksandrovac
78423	17.7300025	45.0934982	Bosanski Kobaš
79220	16.3797167	45.0476367	Bosanski Novi
79208	17.4933608	44.7651865	Brezičani
78204	16.9302816	44.7870673	Bronzani Majdan
74277	17.7183017	44.5921999	Buletić
74274	17.7325112	44.6829207	Čečava
78240	17.3197371	44.7254585	Čelinac
78403	17.2083939	45.0510742	Cerovljani
79243	16.9235514	45.2079772	Demirovac
78236	17.4162028	44.3742746	Dobretići
79223	16.4797487	45.1503389	Dobrljin
79228	16.4632539	44.9512234	Donji Agići
78432	17.6027102	44.808409	Donji Vijačani
78215	17.1526363	44.8548644	Dragočaj
78411	17.95694	44.5216164	Dubrave
78203	17.06364	44.762558	Galeši
78405	17.0454665	45.0565382	Gornji Podgradci
78439	17.7368591	44.8420682	Gornji Štrpci
74272	17.8011125	44.5838215	Gornji Teslić
78227	18.4445343	43.9095804	Grabovica
78436	17.4629377	44.6068349	Hrvaćani
78234	17.4902177	44.4003959	Imljani
78216	16.2441117	44.9868386	Ivanjska
78233	17.2493283	44.6246867	Javorani
79244	16.6995935	45.1862181	Johova
79246	16.6992582	45.1165648	Knežica
78409	17.3938073	45.0644635	Kočićevo
78207	17.0846698	44.6974417	Kola
78220	17.3698016	44.6204796	Kotor Varoš
79202	16.8397236	44.9744735	Kozarac
78256	17.4062837	44.9417522	Kriškovci
78206	17.142809	44.6181601	Krupa na Vrbasu
78226	17.6025079	44.4152471	Kruševo Brdo
78424	17.4065195	45.0017707	Kukulje
78443	17.7423944	44.7686453	Kulaši
78250	17.3048615	44.908414	Laktaši
78407	17.3392019	45.1002841	Laminci-Sređani
78222	17.5399073	44.6371935	Liplje
78434	17.5585932	44.871476	Lišnja
79206	16.6365132	45.0089523	Ljubija
78410	17.2681175	45.0145017	Mašići
78223	16.4381347	45.0152665	Maslovare
79247	16.742209	45.128756	Međuvođe
70260	17.0840064	44.4165716	Mrkonjić Grad
78418	17.31141354	45.04068895	Nova Topola
78428	17.4874536	45.0227924	Nožičko
79203	16.897645	44.8885477	Omarska
78406	17.4536131	44.5428422	Orahova
78437	17.754397	44.9241218	Palackovci
78217	18.3414205	44.7308916	Piskavica
70275	17.033008	44.24821	Pljeva
70266	16.9795236	44.4051923	Podrašnica
78435	18.9971499	44.4328032	Potočani
74276	17.687834	44.6094642	Pribinić
79000	16.7122495	44.9807105	Prijedor
78430	17.6631777	44.8686369	Prnjavor
78242	17.461	44.70385	Pupovac
78429	17.440988	45.054242	Razboj Lijevc
79226	16.3509656	44.9996779	Rudice
78202	17.1195145	44.8056955	Saračica
78433	17.7052726	44.9224406	Šibovska
70270	17.0827253	44.2833682	Šipovo
78224	17.5656436	44.4666617	Šiprage
78422	17.5613323	45.0488279	Sitneši
78230	17.3800905	44.4899319	Skender Vakuf
74271	16.4123367	44.8709118	Slatina
78253	17.302756	44.815876	Slatina Ilidža
78420	17.5198587	45.0954444	Srbac
79249	16.8860541	45.1324898	Sreflije
78243	17.572053	44.729155	Stara Dubra
78208	17.0062635	44.5800749	Stričići
70273	17.160379	44.179499	Stroice
79229	16.5372377	45.037609	Svodna
74270	17.8595061	44.6065761	Teslić
78252	17.6311951	43.7177407	Trn
78404	19.3668555	43.7517853	Turjak
74278	17.6925099	44.4854398	Ugodnovići
78211	17.3942501	44.6124862	Vrbanja
78225	17.4295398	44.5878396	Vrbanjci
78408	17.0727266	45.0721654	Vrbaška
78214	17.1886361	44.8360835	Zalužani
76312	19.2107897	44.8332129	Batković
76300	19.2178854	44.7574154	Bijeljina
76321	19.116654	44.694294	Bijeljinsko suho Polje
76313	17.5449085	43.7984824	Brodac
76328	19.1476756	44.8558877	Crnjelovo
76323	19.0338906	44.7626269	Dragaljevac
76311	19.2622411	44.8076812	Dvorovi
76318	19.173715	44.5968928	Glavičice
76316	18.9491308	44.6358624	Janja
76337	18.9850038	44.6021299	Teočak
76335	19.084172	44.630736	Trnava Donj
76310	19.2978249	44.8442794	Trnjaci
76330	18.9937981	44.6947019	Ugljevik
76329	19.1712899	44.8017099	Velika Obarska
76325	17.5341959	44.8358505	Vršani
76333	19.1670718	44.1762421	Zabrđe
74414	17.8692358	45.0436589	Bosanski Dubočac
76230	18.468974	45.0595533	Bosanski Šamac
74221	18.158707	44.712502	Bosansko Suho Polje
74206	19.1495545	44.7551566	Brijesnica
74416	17.0298138	43.7609839	Bunar
76239	18.3605774	42.7103229	Crkvina
74400	17.9071259	44.9784385	Derventa
74000	18.0847183	44.7313612	Doboj
76233	18.5845893	45.0581041	Domaljevac
76237	16.8571681	44.4006517	Donja Slatina
74209	17.790026	44.76505	Dragalovci
74483	17.4317986	45.0759199	Dugo Polje
74218	18.0481714	44.8089323	Foča
74484	18.3559376	44.9676311	Garevac
76238	18.4077283	43.8932546	Gornja Slatina
74223	18.0825327	44.7904832	Grapska
76234	18.5164662	45.0358094	Grebnice
74214	19.2014478	44.627957	Johovac
74413	17.8150603	44.9383296	Kalenderovci
74207	18.1867892	44.7253664	Klokotnica
74489	16.6506025	44.8152169	Koprivna
76236	18.4291083	44.9555758	Kornica
74222	16.5443663	45.2159164	Kostajnica
74215	18.0590349	44.8343804	Kotorsko
74415	18.9785022	44.1579578	Kulina
74411	17.9043342	44.9051779	Lupljanica
74216	17.0377664	44.2455931	Majevac
74203	18.0509506	44.6929939	Matuzići
74485	18.3961382	44.9927208	Miloševac
74480	18.3027601	44.956585	Modriča
76235	18.6009827	44.9687051	Obudovac
74412	17.86526	44.8562208	Osinja
74225	18.3957735	44.3753211	Osječani
74217	18.1120779	44.9349776	Podnovlje
74212	18.1625784	44.8058234	Sjenina
74208	17.8357518	44.7471255	Stanari
74230	17.8801978	44.5143724	Usora
74213	18.0267083	44.7771551	Velika Bukovica
74487	18.0376176	42.9115828	Vranjak
73263	17.8990734	45.0289822	Bijelo Brdo
73309	18.0070452	45.1423828	Brod
73280	19.0715447	43.5568196	Čajniče
73307	17.899214	43.6847037	Čelebići
71232	18.4968454	43.5957311	Dobro Polje
73247	19.3972393	43.7563905	Dobrun
73244	19.2942452	43.7410574	Drinsko
73300	18.0481714	44.8089323	Foča
73303	18.902226	43.494181	Godjeno
73255	17.3289349	43.2873324	Jabuka
71230	18.4467193	43.5043116	Kalinovik
73314	18.6992566	43.544855	Kozja Luka
73242	18.2096365	43.6177956	Međeđa
73285	19.090665	43.6507373	Međurječje
73283	19.0404833	43.5928762	Miljeno
73313	18.6421846	43.5109627	Miljevina
73245	19.24711	43.892771	Prelevo
73260	19.3666509	43.6174112	Rudo
73267	19.225244	43.677502	Srtgacina
73311	18.6876593	43.3509614	Tjentište
71233	17.7915552	43.3076632	Ulog
73250	18.7896812	43.5835116	Ustikolina
73265	19.492127	43.623761	Uvac
73249	18.2851798	44.0526716	Vardište
73240	19.2933519	43.7844137	Višegrad
73287	19.1874407	43.5787483	Zaborak
73305	18.869369	43.431275	Zavajt
73305	18.869369	43.431275	Zavajt
73225	19.089483	43.89788	Borike
71347	18.4307071	43.8578716	Careva Ćuprija
71360	18.9530643	44.0812895	Han Pijesak
73295	18.8199123	43.7616707	Hrenovica
71423	18.563315	43.7370042	Jahorina
71355	18.6645157	44.0023472	Kaljina
71356	18.7567137	44.020292	Knežina
73228	18.986387	43.7536989	Mesići
71428	18.6359305	43.8929855	Mokro
71420	18.5673202	43.8148706	Pale
71425	18.7031656	43.7657911	Podgrab
73290	18.8689435	43.7635141	Prača
73220	19.0039015	43.7985694	Rogatica
73230	19.0694939	43.7427763	Šljedovići
71357	18.95605	43.95315	Snrtici
71357	18.95605	43.95315	Snrtici
73223	18.8796424	43.8394082	Stjenice
73226	19.1213237	43.9750619	Žepa
89245	18.5627306	43.1500326	Avtovac
89230	18.4284847	42.87207	Bileća
89243	18.3355469	43.5443302	Čemerno
89233	18.2929107	43.0412052	Divin
89202	17.6703696	42.9163349	Duži
89247	17.8997641	43.9631837	Fojnica
89240	18.532483	43.1681328	Gacko
89201	17.0631096	43.6934264	Grab
89203	18.189677	42.7483167	Hum
88283	18.2084454	43.2806924	Kifino Selo
89208	18.9769289	43.3399209	Lastva
89209	18.31903279	42.83638785	Ljubomir
89204	18.4006179	42.7690892	Mosko
89249	18.4685501	43.1952306	Nadinići
88280	18.1130457	43.2582706	Nevesinje
88285	18.3269719	45.0125273	Odžak
89235	16.8255123	44.0421248	Plana
89206	16.606211	44.2972637	Poljice
88288	18.11425028	43.346852	Pridvorci
89104	18.33941253	42.71734135	Trebinje
88286	18.2122491	43.1574316	Zovi Do
75420	19.3321845	44.1849993	Bratunac
75444	17.9071259	44.9784385	Derventa
75410	18.6383575	44.2286859	Drinjača
75423	18.97812623	43.6597057	Fakovići
75404	19.0521839	44.4123439	Gušteri
75413	19.111359	44.497891	Kozluk
75422	19.1148958	44.2427743	Kravica
75446	19.0738401	44.1660652	Milići
75445	19.1079397	44.2141242	Nova Kasaba
75434	19.395854	43.969918	Osatica
75453	18.9484678	44.3354024	Paprača
75412	19.1343641	44.5928357	Pilica
75433	19.3023567	44.1570462	Potočari
75411	19.1131103	44.4240208	Sapna
75450	18.8551958	44.2975448	Šekovići
75436	19.5317425	43.9721961	Skelani
75430	19.2952783	44.1063188	Srebrenica
75414	18.9850038	44.6021299	Teočak
75455	18.8725458	44.2444198	Tišča
75440	18.9405987	44.1822575	Vlasenica
75400	19.0993447	44.3837392	Zvornik
