CUL	LONGITUDE	LATITUDE	NAME
66040	14.330666	42.102414	Altino
66040	14.215535	42.073188	Selva
66044	14.382181	42.090418	Archi
66044	14.372779	42.106146	Piane d'archi
66010	14.264034	42.293367	Ari
66010	14.267037	42.284704	San Pietro
66030	14.307327	42.263168	Arielli
66041	14.446061	42.066713	Atessa
66041	14.433463	42.125481	Monte Marcone
66041	14.262833	42.122833	Piana la Fara
66041	14.440668	42.144971	Piazzano
66042	14.368148	42.035315	Bomba
66040	14.305315	41.920019	Borrello
66011	14.182742	42.305863	Bucchianico
66011	14.136614	42.319759	Colle Sant'Antonio
66010	14.306320	42.299846	Canosa Sannita
66030	14.504298	42.010716	Carpineto Sinello
66050	14.524977	41.918983	Carunchio
66010	14.200333	42.248444	Casacanditella
66010	14.215922	42.278224	Semivicoli
66031	14.500022	42.036883	Casalanguida
66021	14.584455	42.150065	Casalbordino
66021	14.584455	42.150065	Casalbordino stazione
66021	14.614594	42.159370	Miracoli
66012	14.136019	42.297830	Casalincontrada
66043	14.292004	42.117978	Casoli
66043	14.304000	42.122176	Selva piana
66032	14.356278	42.198130	Castel Frentano
66040	14.522815	41.823778	Castelguidone
66033	14.450875	41.866724	Castiglione Messer Marino
66050	14.580426	41.872327	Celenza sul Trigno
66100	14.092928	42.322160	Brecciarola
66100	14.167151	42.351793	Chieti
66100	14.138845	42.356960	Chieti Scalo
66100	14.169346	42.354894	Tricalle
66040	14.302882	41.945124	Civitaluparella
66010	14.216238	42.088306	Civitella Messer Raimondo
66010	14.202422	42.005831	Colledimacine
66040	14.387319	41.987306	Colledimezzo
66014	14.323218	42.289978	Crecchio
66014	14.322108	42.304632	Villa Tucci
66051	14.674185	42.071792	Cupello
66050	14.635995	41.942133	Dogliola
66040	14.324742	41.938789	Fallo
66010	14.186034	42.249925	Fara Filiorum Petri
66015	14.203968	42.091048	Fara San Martino
66030	14.246111	42.229222	Filetto
66022	14.480364	42.243256	Fossacesia
66022	14.511472	42.248143	Fossacesia Marina
66022	14.435677	42.227812	Scorciosa
66050	14.487352	41.906407	Fraine
66023	14.287307	42.421522	Francavilla al Mare
66023	14.287307	42.421522	Francavilla al Mare rione foro
66050	14.662804	41.975444	Fresagrandinaria
66030	14.370846	42.263912	Frisa
66030	14.385019	42.270019	Guastameroli
66050	14.589161	42.009976	Furci
66040	14.209344	41.904808	Gamberale
66010	14.274074	42.057667	Gessopalena
66052	14.546155	42.021971	Gissi
66010	14.285774	42.304310	Giuliano Teatino
66016	14.207519	42.201574	Caporosso
66016	14.192559	42.186261	Comino
66016	14.222434	42.190515	Guardiagrele
66016	14.268907	42.189241	Piano delle fonti
66016	14.286698	42.189866	San Vincenzo
66050	14.476362	41.996959	Guilmi
66010	14.187204	42.042500	Lama dei Peligni
66034	14.391379	42.233175	Lanciano
66034	14.186451	42.376820	Madonna del Carmine
66034	14.355114	42.228194	Nasuti
66034	14.390410	42.173439	Rizzacorno
66034	14.354076	42.238087	Sant'Amato
66034	14.396082	42.186182	Villa Elce
66050	14.676303	41.997170	Lentella
66010	14.159651	42.001600	Lettopalena
66050	14.558240	41.954286	Liscia
66010	14.292500	42.359389	Miglianico
66030	14.429174	41.947760	Montazzoli
66040	14.325019	41.987667	Buonanotte
66040	14.325019	41.987667	Montebello sul Sangro
66040	14.387659	41.955900	Monteferrante
66040	14.342623	41.963165	Montelapiano
66010	14.252121	41.977066	Montenerodomo
66050	14.653281	42.087019	Monteodorisio
66030	14.445848	42.211604	Mozzagrogna
66030	14.423719	42.210897	Villa Romagnoli
66036	14.280000	42.220019	Orsogna
66026	14.405210	42.356909	Ortona
66026	14.333978	42.396407	Ortona Foro
66026	14.410772	42.357704	Ortona Porto
66026	14.364852	42.293444	Villa Caldari
66026	14.365648	42.329870	Villa Grande
66026	14.402204	42.312204	Villa San Leonardo
66026	14.361452	42.350229	Villa San Nicola
66020	14.498296	42.164074	Paglieta
66020	14.490964	42.178078	Sant'Egidio
66017	14.138778	41.984074	Palena
66050	14.581582	41.939434	Palmoli
66010	14.230368	42.127222	Palombaro
66040	14.325333	42.005963	Pennadomo
66010	14.194812	42.154717	Pennapiedimonte
66040	14.395019	42.104241	Perano
66040	14.375019	41.969852	Pietraferrazzana
66040	14.236741	41.922519	Pizzoferrato
66030	14.323296	42.255944	Poggiofiorito
66020	14.592868	42.139196	Pollutri
66010	14.142833	42.218778	Pretoro
66040	14.289241	41.925944	Quadri
66010	14.186349	42.210274	Rapino
66010	14.235000	42.359704	Ripa Teatina
66010	14.128652	42.243129	Roccamontepiano
66010	14.282840	42.324943	San Rocco
66010	14.136988	42.259729	Terranova
66020	14.462500	42.247037	Rocca San Giovanni
66040	14.307833	42.063611	Roccascalegna
66050	14.482990	41.920053	Olmi
66050	14.470332	41.937040	Roccaspinalveti
66040	14.372660	41.911711	Roio del Sangro
66040	14.357833	41.922204	Giuliopoli
66040	14.350796	41.901889	Rosello
66050	14.570706	41.981780	San Buono
66050	14.561121	41.846187	San Giovanni Lipioni
66020	14.180963	42.418926	Sambuceto
66020	14.202207	42.410215	San Giovanni Teatino
66010	14.214135	42.225958	San Martino sulla Marrucina
66050	14.731020	42.044658	San Salvo
66050	14.773656	42.067807	San salvo Marina
66030	14.449304	42.217958	Santa Maria Imbaro
66037	14.328148	42.170019	Sant'Eusanio del Sangro
66038	14.445290	42.308110	Marina di San Vito
66038	14.406671	42.295354	Sant'Apollinare Chietino
66038	14.445481	42.297037	San Vito Chietino
66020	14.581447	42.099891	San Giacomo di Scerni
66020	14.570173	42.103148	Scerni
66045	14.484676	41.815994	Schiavi di Abruzzo
66045	14.479220	41.793165	Taverna di Schiavi di Abruzzo
66018	14.169393	42.018643	Taranta Peligna
66010	14.319074	42.348907	Tollo
66020	14.541722	42.189241	Torino di Sangro
66020	14.541722	42.189241	Torino di Sangro stazione
66046	14.439074	41.966259	San Giovanni
66046	14.417037	42.039241	Tornareccio
66050	14.532191	41.853443	Guardiabruna
66050	14.540600	41.869338	Torrebruna
66010	14.223315	42.378771	Castelferrato
66010	14.214408	42.383714	Torrevecchia Teatina
66019	14.242727	42.005590	Fallascoso
66019	14.259603	42.024762	Torricella Peligna
66030	14.426093	42.269128	Treglio
66050	14.624809	41.918276	Tufillo
66010	14.232668	42.297785	Vacri
66054	14.698319	42.144750	Incoronata di Vasto
66054	14.726032	42.093920	Marina di Vasto
66054	14.674256	42.124494	San Lorenzo di Vasto
66054	14.709621	42.112706	Vasto
66020	14.571060	42.160979	Villalfonsina
66010	14.237037	42.330019	Villamagna
66047	14.349329	41.948728	Villa Santa Maria
67020	13.716908	42.176416	Acciano
67020	13.680173	42.193056	Beffi
67020	13.698444	42.197204	Roccapreturo
67041	13.591574	42.081889	Aielli
67041	13.586262	42.063813	Aielli stazione
67030	14.032533	41.734238	Alfedena
67030	13.804852	41.994852	Anversa degli Abruzzi
67030	13.812223	41.983544	Castrovalva
67030	14.201356	41.854829	Ateleta
67051	13.402795	42.069591	Antrosano
67051	13.425618	42.028408	Avezzano
67051	13.280619	42.374856	Cese
67051	13.284389	42.538130	Paterno
67051	13.461384	42.050866	San Pelino
67051	13.435546	42.033463	Santuario di Pietracquaria
67052	13.560796	41.810963	Balsorano
67052	13.558756	41.812420	Balsorano Nuovo
67052	13.609417	41.788273	Ridotti
67010	13.283232	42.449088	Barete
67021	13.593463	42.325481	Barisciano
67021	13.542037	42.321741	Picenze
67030	13.992042	41.755249	Barrea
67050	13.758611	41.922204	Bisegna
67050	13.760486	41.942742	San Sebastiano
67030	13.858679	42.022198	Bugnara
67030	13.870166	42.045029	Torre dei Nolfi
67012	13.224790	42.452265	Cagnano Amiterno
67012	13.569509	42.292634	San Giovanni
67020	13.698109	42.326569	Calascio
67030	14.034882	42.011193	Campo di Giove
67013	13.367855	42.559871	Campotosto
67013	13.348573	42.527763	Mascioni
67013	13.424886	42.519922	Ortolano
67013	13.327519	42.562370	Poggio Cancelli
67050	13.413443	41.941626	Canistro
67050	13.412879	41.941080	Canistro inferiore
67050	13.396958	41.941895	Canistro superiore
67030	14.012815	42.005481	Cansano
67022	13.766123	42.268571	Capestrano
67053	13.389809	41.965729	Capistrello
67053	13.347380	42.008869	Corcumello
67053	13.389809	41.965729	Pescocanale
67014	13.300880	42.520421	Capitignano
67020	13.674709	42.251143	Caporciano
67060	13.280085	42.005840	Cappadocia
67060	13.281857	42.017624	Petrella Liri
67060	13.248313	42.035890	Verrecchie
67020	13.682483	42.299696	Carapelle Calvisio
67061	13.086941	42.099501	Carsoli
67061	13.158241	42.097234	Colli di Montebove
67061	13.114704	42.092981	Montesabinese
67061	13.128892	42.135053	Pietrasecca
67061	13.052506	42.112089	Poggio Cinolfo
67061	13.107543	42.156456	Tufo di Carsoli
67061	13.097725	42.085878	Villa Romana
67023	13.725791	42.364519	Castel del Monte
67020	13.742733	42.115614	Castel di Ieri
67031	14.108263	41.784336	Castel di Sangro
67031	14.120759	41.811827	Roccacinquemiglia
67050	13.334321	41.989380	Castellafiume
67050	13.334321	41.989380	Pagliara
67020	13.688458	42.310640	Castelvecchio Calvisio
67024	13.730645	42.130587	Castelvecchio Subequo
67043	13.540796	42.086574	Celano
67044	13.601875	42.064679	Cerchio
67050	13.469873	41.886244	Civita d'Antino
67050	13.454704	41.881722	Pero dei Santi
67030	13.943778	41.766426	Civitella Alfedena
67054	13.427455	41.913731	Civitella Roveto
67054	13.403452	41.888774	Meta
67030	13.774808	42.033759	Cocullo
67040	13.626476	42.060389	Collarmele
67050	13.584437	41.886504	Collelongo
67020	13.778725	42.221062	Collepietro
67030	13.842161	42.123816	Corfinio
67020	13.574951	42.254054	Fagnano Alto
67020	13.605115	42.231730	Fontecchio
67020	13.487424	42.295772	Fossa
67020	13.700944	42.127500	Gagliano Aterno
67055	13.683030	41.960985	Casali d'aschi
67055	13.684107	41.956116	Gioia dei Marsi
67030	13.775796	42.081889	Goriano Sicoli
67030	13.899222	42.008444	Introdacqua
67100	13.458325	42.395729	Aragno
67100	13.340238	42.419306	Arischia
67100	13.508463	42.416722	Assergi
67100	13.424805	42.309967	Bagno
67100	13.454921	42.338322	Bazzano
67100	13.494508	42.390643	Camarda
67100	13.575477	42.441737	Campo Imperatore
67100	13.417204	42.399704	Collebrincioni
67100	13.348681	42.342249	Colle di Roio
67100	13.342777	42.366438	Coppito
67100	13.637576	41.754051	Forcella
67100	13.399934	42.350698	L'Aquila
67100	13.464625	42.320981	Monticchio
67100	13.480481	42.329389	Onna
67100	13.470361	42.359710	Paganica
67100	13.311280	42.349921	Pagliare
67100	13.406741	42.327500	Pianola
67100	13.369460	42.362318	Pile
67100	13.378473	42.332349	Poggio di Roio
67100	13.297667	42.378444	Preturo
67100	13.356371	42.331746	Roio Piano
67100	13.434616	42.303557	San Benedetto
67100	13.496517	42.327330	San Gregorio
67100	13.241185	42.403355	Santi
67100	13.314543	42.397028	San Vittorino
67100	13.302814	42.352498	Sassa
67100	13.457367	42.365981	Tempera
67050	13.682134	41.930044	Lecce nei Marsi
67056	13.474537	41.958148	Luco dei Marsi
67045	13.391801	42.259343	Casamaina
67045	13.338907	42.292056	Lucoli
67045	13.330649	42.307594	Ville di Lucoli
67062	13.364870	42.092500	Magliano de' Marsi
67062	13.270390	42.123797	Marano dei Marsi
67062	13.338878	42.118091	Rosciolo dei Marsi
67050	13.408984	42.079893	Albe
67050	13.389235	42.110926	Corona
67050	13.443372	42.112186	Forme
67050	13.389400	42.111841	Massa d'Albe
67020	13.736426	42.150000	Molina Aterno
67015	13.266652	42.556044	Aringo
67015	13.186799	42.498409	Cesaproba
67015	13.222667	42.494389	Marana
67015	13.245048	42.524138	Montereale
67015	13.275786	42.506509	San giovanni paganica
67015	13.195250	42.531144	Ville di Fano
67050	13.434090	41.861469	Grancia
67050	13.457049	41.864866	Morino
67050	13.469222	41.836407	Rendinara
67020	13.705706	42.245680	Civitaretenga
67020	13.727806	42.237655	Navelli
67040	13.476254	42.287096	Ocre
67040	13.478192	42.273961	San Martino d'Ocre
67025	13.759704	42.326889	Ofena
67030	13.829742	41.780971	Opi
67063	13.469873	41.886244	Civita
67063	13.040570	42.049969	Oricola
67050	13.716270	42.029032	Carrito
67050	13.729173	41.997819	Ortona dei Marsi
67050	13.646722	41.956111	Ortucchio
67046	13.517037	42.138148	Ovindoli
67046	13.515250	42.121451	San Potito
67046	13.510102	42.099041	Santo iona
67030	13.992395	42.051807	Pacentro
67064	13.100624	42.059130	Pereto
67032	13.789580	41.808249	Pescasseroli
67057	13.659567	42.026294	Pescina
67057	13.645641	41.989936	Venere
67033	14.064273	41.888592	Pescocostanzo
67034	13.959704	41.975648	Pettorano sul Gizio
67017	13.337188	42.444282	Marruci
67017	13.312784	42.432251	Pizzoli
67017	13.322956	42.422938	San Lorenzo di Pizzoli
67026	13.542037	42.321741	Poggio Picenze
67020	13.606536	42.278568	Prata d'Ansidonia
67020	13.641574	42.265796	Tussio
67035	13.910861	42.093495	Bagnaturo
67035	13.874852	42.099389	Pratola Peligna
67030	13.880019	42.055333	Campo di Fano
67030	13.833403	42.058199	Prezza
67027	13.814815	42.102607	Raiano
67036	14.066418	41.870743	Rivisondoli
67030	13.886598	42.123955	Roccacasale
67066	13.069129	42.025158	Rocca di Botte
67047	13.490019	42.237204	Rocca di Cambio
67048	13.520333	42.205796	Rocca di Mezzo
67048	13.517056	42.177037	Rovere
67030	13.977474	41.934473	Rocca Pia
67037	14.033885	41.824178	Aremogna
67037	14.118931	41.847581	Pietransieri
67037	14.079944	41.847663	Roccaraso
67058	13.619357	42.004030	San Benedetto dei Marsi
67020	13.771266	42.184531	San Benedetto in Perillis
67028	13.558185	42.288040	San Demetrio ne' Vestini
67020	13.628248	42.294993	Castelnuovo
67020	13.658494	42.284863	San Pio delle Camere
67067	13.205401	42.101140	Sante Marie
67067	13.643098	42.344199	Santo Stefano
67067	13.250126	42.105606	Scanzano
67020	13.525180	42.288977	Sant'Eusanio Forconese
67020	13.643098	42.344199	Santo Stefano di Sessanio
67050	13.480271	41.850401	Castronovo
67050	13.534835	41.812289	Roccavivi
67050	13.523409	41.833593	San Vincenzo Valle Roveto
67050	13.534817	41.844445	San Vincenzo Valle Roveto superiore
67050	13.535145	41.843860	San Vincenzo Vecchio
67038	13.870421	41.930590	Frattura
67038	13.882747	41.901750	Scanno
67030	14.039574	41.747218	Scontrone
67030	14.064327	41.753269	Villa Scontrone
67019	13.255876	42.372151	Scoppito
67019	13.183865	42.363688	Sella di Corno
67019	13.219132	42.348678	Vigliano
67068	13.382219	42.065923	Cappelle
67068	13.339503	42.063230	Scurcola Marsicana
67029	13.680298	42.153828	Secinaro
67039	13.917066	42.089873	Abazia di Sulmona
67039	13.925630	42.021301	Albanese
67039	13.917785	42.047545	Arabona
67039	13.930167	42.008463	Cavate
67039	13.945796	42.067519	Marane
67039	13.925648	42.046828	Sulmona
67039	13.896780	42.046385	Torrone
67069	13.265316	42.099166	Gallo
67069	13.235457	42.087904	Poggetello
67069	13.304660	42.085282	Poggio Filippo
67069	13.207764	42.066189	Roccacerro
67069	13.280257	42.093772	San Donato
67069	13.315718	42.075854	Sorbo
67069	13.256965	42.068868	Tagliacozzo
67069	13.195220	42.091289	Tremonti
67069	13.312519	42.030796	Villa San Sebastiano
67020	13.669042	42.183832	Goriano Valli
67020	13.635255	42.202973	Tione degli Abruzzi
67049	13.260333	42.339389	Rocca Santo Stefano
67049	13.320426	42.411083	San Nicola
67049	13.296848	42.298529	Tornimparte
67049	13.300944	42.296426	Villagrande
67059	13.535481	41.957981	Trasacco
67030	13.838085	41.935275	Villalago
67020	13.772667	42.330481	Carrufo
67020	13.777981	42.334241	Villa Santa Lucia degli Abruzzi
67020	13.538148	42.271407	Villa Sant'Angelo
67050	13.626614	41.866605	Villavallelonga
67030	13.934263	41.775659	Villetta Barrea
67030	13.817655	42.128152	Vittorito
65020	14.013646	42.224515	Abbateggio
65020	13.971743	42.294949	Alanno
65020	14.015167	42.285315	Alanno Scalo
65020	14.011741	42.292519	Ticchione
65020	13.961111	42.219241	Bolognano
65020	13.954177	42.193405	Musellaro
65020	13.951444	42.250821	Piano d'Orta
65010	13.862457	42.318495	Brittoli
65022	13.843296	42.197370	Bussi Officine
65022	13.824796	42.212633	Bussi sul Tirino
65010	14.103223	42.465017	Cappelle sul Tavo
65023	14.002929	42.157270	Caramanico Terme
65023	13.971268	42.188135	San Tommaso
65010	13.861722	42.334074	Carpineto della Nora
65020	13.923357	42.238639	Castiglione a Casauria
65011	13.952404	42.347020	Catignano
65012	14.076722	42.365944	Cepagatti
65012	14.102327	42.352934	Vallemare
65012	14.125333	42.385167	Villanova
65012	14.112519	42.344074	Villareia
65013	14.060167	42.519241	Citta Sant'Angelo
65013	14.138009	42.526075	Marina
65013	14.129852	42.514241	San Martino bassa
65013	14.072016	42.511255	Villa Cipresso
65010	13.902439	42.325615	Civitaquana
65010	13.885710	42.364529	Civitella Casanova
65010	13.886178	42.388732	Vestea
65010	14.044704	42.446722	Barberi
65010	14.016278	42.460019	Collecorvino
65010	14.086111	42.474241	Congiunti
65010	14.076407	42.466259	Santa Lucia
65020	13.873899	42.275641	Corvara
65020	13.933778	42.308130	Cugnoli
65010	13.970333	42.521407	Elice
65010	13.823111	42.442291	Farindola
65020	14.035890	42.243623	Lettomanoppello
65014	13.983680	42.436699	Loreto Aprutino
65024	14.060944	42.258778	Manoppello
65024	14.063148	42.309852	Manoppello Scalo
65024	14.060944	42.258778	Ripacorbaria
65010	13.873072	42.418424	Montebello di Bertona
65015	14.138939	42.505074	Montesilvano
65015	14.142474	42.491264	Montesilvano colle
65015	14.156241	42.516364	Montesilvano Marina
65015	14.133505	42.500076	Villa Carmine
65010	14.054380	42.427432	Moscufo
65010	13.985000	42.334074	Nocciano
65017	13.927475	42.457622	Penne
65017	13.821384	42.477967	Roccafinadamo
65121	14.214920	42.466808	Pescara
65122	14.209640	42.470638	Pescara
65123	14.194420	42.483582	Pescara
65124	14.199270	42.470299	Pescara
65125	14.175120	42.478939	Pescara
65126	14.227090	42.460678	Pescara
65127	14.219360	42.457420	Pescara
65128	14.194770	42.443508	Pescara
65129	14.223080	42.447830	Pescara
65020	13.986648	42.223094	Pesconuovo
65020	13.884431	42.255103	Pescosansonesco
65019	14.108148	42.398611	Castellana
65019	14.104870	42.391889	Cerratina
65019	14.047763	42.397303	Pianella
65010	13.991741	42.485333	Piccianello
65010	13.990075	42.476195	Picciano
65020	13.911430	42.277365	Pietranico
65026	13.831722	42.170944	Popoli
65020	14.024414	42.215540	Roccamorice
65020	14.047204	42.325019	Rosciano
65020	14.039975	42.354091	Villa Badessa
65020	14.067204	42.338907	Villa Oliveti
65020	14.026777	42.339696	Villa San Giovanni
65020	13.962204	42.177981	Salle
65020	14.026478	42.127167	Sant'Eufemia a Maiella
65020	13.986574	42.234074	San Valentino in Abruzzo Citeriore
65027	14.028973	42.167974	Decontra
65027	13.996613	42.266874	Scafa
65025	14.092789	42.245609	Serramonacesca
65010	14.110333	42.434389	Caprara d'Abruzzo
65010	14.160333	42.425944	Santa Teresa
65010	14.142077	42.454535	Spoltore
65010	14.187084	42.457717	Villa Raspa
65028	13.914556	42.214870	Tocco da Casauria
65029	13.934222	42.244222	Torre de' Passeri
65020	14.026137	42.261716	Turrivalignani
65010	13.897320	42.341649	Vicoli
65010	13.859537	42.382815	Villa Celiera
64011	13.926037	42.831834	Alba Adriatica
64010	13.740651	42.836979	Ancarano
64031	13.784569	42.502381	Arsita
64032	13.981002	42.580202	Atri
64032	13.979661	42.617115	Casoli
64032	13.927245	42.619212	Fontanelle
64032	13.925648	42.596722	San Giacomo
64032	13.942237	42.606367	Santa Margherita
64032	14.048926	42.551426	Treciminiere
64030	13.741111	42.594870	Basciano
64020	13.803994	42.744854	Bellante
64020	13.838299	42.706514	Bellante stazione
64020	13.837098	42.714913	Ripattoni
64033	13.801118	42.528439	Bisenti
64012	13.693334	42.729534	Campli
64012	13.663759	42.729074	Campovalano
64012	13.657056	42.737085	Garrufo di Campli
64012	13.718923	42.753184	Paterno
64012	13.727667	42.733778	Piancarani
64012	13.736787	42.761089	Sant'Onofrio
64020	13.805000	42.646741	Canzano
64020	13.793060	42.658576	Valle Canzano
64030	13.717352	42.543907	Castel Castagna
64020	13.829222	42.697500	Casemolino
64020	13.844401	42.645057	Castelbasso
64020	13.823220	42.678683	Castellalto
64020	13.851186	42.628421	Castelnuovo vomano
64020	13.838854	42.699164	Petriccione
64020	13.845666	42.696328	Villa Zaccheo
64041	13.711786	42.489102	Castelli
64041	13.731469	42.514631	Colledoro
64034	13.849603	42.545317	Appignano
64034	13.879333	42.532388	Castiglione Messer Raimondo
64035	13.917677	42.533598	Castilenti
64035	13.944871	42.551930	Villa San romualdo
64036	13.857826	42.586288	Cellino Attanasio
64036	13.819832	42.592216	Scorrano
64037	13.796889	42.592667	Cermignano
64037	13.821563	42.615823	Montegualtieri
64037	13.810799	42.571419	Poggio delle rose
64010	13.616531	42.794910	Cerqueto del Tronto
64010	13.667037	42.772393	Civitella del Tronto
64010	13.725165	42.699021	Ponzano
64010	13.636973	42.756569	Ripe civitella del Tronto
64010	13.666588	42.755018	Rocche di Civitella
64010	13.678100	42.778704	Villa Favale
64010	13.647500	42.794870	Villa Lempa
64010	13.652961	42.778928	Villa Passo
64042	13.679379	42.540735	Colledara
64042	13.652500	42.534852	Ornano Grande
64042	13.717773	42.570024	Villa Petto
64010	13.867273	42.872236	Colonnella
64010	13.818611	42.855648	Controguerra
64013	13.832981	42.830481	Corropoli
64040	13.541841	42.632180	Cortino
64040	13.469553	42.633489	Padula
64040	13.542332	42.632593	Pagliaroli
64043	13.475669	42.582232	Cervaro
64043	13.447783	42.588544	Cesacastina
64043	13.489223	42.587634	Crognaleto
64043	13.518054	42.568245	Macchia Vomano
64043	13.477559	42.547605	Nerito
64043	13.552100	42.562169	Poggio Umbricchio
64043	13.533446	42.595089	San Giorgio
64043	13.467055	42.554300	Tottea
64044	13.616531	42.794910	Cerqueto
64044	13.536315	42.553188	Fano Adriano
64021	13.945026	42.724836	Colleranesco
64021	13.962371	42.752550	Giulianova
64021	13.980818	42.732057	Giulianova spiaggia
64045	13.627214	42.504929	Cerchiara
64045	13.615554	42.491118	Fano a Corno
64045	13.632094	42.519468	Forca di Valle
64045	13.660914	42.502517	Isola del Gran Sasso d'Italia
64045	13.657500	42.516944	San gabriele dell'Addolorata
64014	13.915481	42.884697	Martinsicuro
64014	13.922500	42.852519	Villa Rosa
64030	13.884656	42.545622	Montefino
64030	13.921403	42.559799	Villa Bozza
64046	13.664413	42.595133	Collevecchio di Montorio
64046	13.585565	42.569855	Cusciano
64046	13.680370	42.583378	Leognano
64046	13.632800	42.583220	Montorio al Vomano
64020	13.920979	42.663576	Morro d'Oro
64020	13.953378	42.646477	Pagliare
64023	13.918821	42.767903	Montone
64023	13.888538	42.749175	Mosciano Sant'Angelo
64023	13.877981	42.709074	Notaresco stazione
64015	13.817056	42.820000	Nereto
64024	13.892610	42.659300	Guardia Vomano
64024	13.892610	42.659300	Notaresco
64024	13.901278	42.633148	Pianura vomano
64039	13.772051	42.594294	Penna Sant'Andrea
64039	13.752051	42.607257	Val Vomano
64047	13.541710	42.535445	Intermesoli
64047	13.553393	42.523048	Pietracamela
64025	14.044537	42.612519	Borgo Santa Maria immacolata
64025	14.036898	42.588119	Mutignano
64025	14.063004	42.611956	Pineto
64025	14.038444	42.649537	Scerne
64010	13.527534	42.687070	Rocca Santa Maria
64026	13.948061	42.693662	Cologna paese
64026	13.980777	42.725796	Cologna spiaggia
64026	13.987071	42.677507	Montepagano
64026	14.016131	42.675161	Roseto degli Abruzzi
64026	13.987397	42.654354	San Giovanni
64026	13.617519	42.593778	Santa Lucia
64016	13.680836	42.803827	Faraone nuovo
64016	13.741542	42.808182	Paolantonio
64016	13.713953	42.823921	Sant'Egidio alla Vibrata
64016	13.688907	42.820648	Villa Mattoni
64027	13.657056	42.737085	Garrufo
64027	13.874241	42.784704	Poggio Morello
64027	13.787630	42.791897	Sant'Omero
64028	14.085971	42.556597	Pianacce
64028	14.104860	42.550090	San Silvestro
64028	14.122981	42.546741	Silvi
64028	14.118125	42.549349	Silvi Marina
64100	13.704591	42.656386	Cartecchio
64100	13.647316	42.670599	Castagneto
64100	13.736110	42.678612	Colleatterrato alto
64100	13.717667	42.689537	Colleminuccio
64100	13.724613	42.705687	Colle Santa Maria
64100	13.767897	42.622478	Forcella
64100	13.647847	42.621108	Frondarola
64100	13.708148	42.619537	Miano
64100	13.756574	42.689870	Nepezzano
64100	13.757632	42.684360	Piano d'accio
64100	13.777564	42.666526	Poggio San Vittorino
64100	13.789870	42.695315	San Nicolo a Tordino
64100	13.807659	42.707799	Sant'Atto
64100	13.666270	42.606439	Spiano
64100	13.698531	42.661269	Teramo
64100	13.657154	42.633890	Tordinia
64100	13.618241	42.621955	Valle San Giovanni
64100	13.720145	42.705612	Varano
64100	13.652192	42.634358	Villa Ripa
64100	13.763348	42.615968	Villa Vomano
64010	13.778296	42.824074	Torano Nuovo
64010	13.621229	42.664189	Ioanella
64010	13.603167	42.653846	Santo Stefano
64010	13.655994	42.658275	Torricella Sicura
64018	13.913481	42.786497	Salino
64018	13.912978	42.804399	Tortoreto
64018	13.942056	42.799556	Tortoreto Lido
64049	13.632320	42.555118	Azzinano
64049	13.666430	42.556087	Chiarino
64049	13.647985	42.545531	Tossicia
64010	13.535887	42.804384	Cesano
64010	13.550905	42.742743	Leofara
64010	13.496567	42.701092	Pascellata
64010	13.447639	42.711529	Pietralta
64010	13.550392	42.792282	San Vito
64010	13.496874	42.736670	Valle Castellana
75011	16.158926	40.492037	Accettura
75010	16.229853	40.313787	Aliano
75012	16.692815	40.413926	Bernalda
75012	16.807439	40.374031	Metaponto
75012	16.835000	40.360796	Metaponto lido
75012	16.781574	40.445019	Serra Marina
75010	16.192136	40.587827	Calciano
75010	16.172837	40.394992	Cirigliano
75021	16.425963	40.188463	Colobraro
75010	16.436306	40.380232	Craco
75010	16.496574	40.360630	Peschiera
75013	16.455648	40.502370	Ferrandina
75013	16.502743	40.470906	Macchia
75010	16.228148	40.549556	Garaguso
75010	16.144121	40.393661	Gorgoglione
75014	16.283514	40.632692	Grassano
75010	16.380694	40.602073	Grottole
75022	16.239464	40.748567	Irsina
75022	16.162826	40.798485	Taccone
75100	16.537673	40.660849	La Martella
75100	16.606087	40.668653	Matera
75100	16.580648	40.723296	Venusio
75010	16.499631	40.569378	Miglionico
75023	16.565786	40.290875	Montalbano Jonico
75024	16.667932	40.553325	Montescaglioso
75020	16.541371	40.149031	Nova Siri
75020	16.635796	40.133444	Nova siri Scalo
75010	16.185481	40.536426	Oliveto Lucano
75020	16.688257	40.363988	Marconia
75010	16.311350	40.468811	Pisticci
75015	16.651649	40.364761	Pisticci
75020	16.695610	40.261700	Pisticci
75010	16.548793	40.421044	Pisticci Scalo
75025	16.678339	40.212968	Policoro
75016	16.548755	40.515597	Pomarico
75026	16.526407	40.172352	Rotondella
75017	16.319460	40.528106	Salandra
75027	16.387555	40.110775	San Giorgio Lucano
75010	16.250589	40.486728	San Mauro Forte
75020	16.654537	40.252519	Recoleta
75020	16.699144	40.250975	Scanzano Jonico
75018	16.227730	40.403520	Stigliano
75019	16.133778	40.683926	Calle
75019	16.147352	40.618778	Tricarico
75028	16.404233	40.307782	Caprarico
75028	16.412265	40.321644	Gannano
75028	16.470648	40.246259	Tursi
75029	16.444389	40.170944	Valsinni
85010	15.813747	40.508072	Abriola
85011	15.937513	40.793128	Acerenza
85010	16.037037	40.585630	Albano di Lucania
85010	15.925481	40.517667	Anzi
85010	16.065471	40.307799	Armento
85020	15.651314	40.876810	Atella
85020	15.589743	40.896067	Sant'Andrea
85020	15.666579	40.791324	Sant'Ilario
85020	15.721278	40.730796	Avigliano
85021	15.721278	40.730796	Avigliano
85020	15.745053	40.796813	Castel Lagopesole
85020	15.752540	40.829504	Piano del conte
85020	15.775463	40.781775	Possidente
85020	15.793130	40.759537	Sant'Angelo
85050	15.515000	40.651426	Balvano
85010	16.013926	40.861741	Banzi
85050	15.595315	40.680315	Baragiano
85050	15.578463	40.693148	Scalo di Baragiano
85022	15.673235	40.947121	Barile
85021	15.539424	40.759359	Bella
85051	15.539424	40.759359	Bella
85021	16.091913	39.995328	San Cataldo
85051	15.593436	40.732165	Sant'Antonio Casalini
85050	15.630838	40.478864	Brienza
85010	15.940662	40.610673	Brindisi Montagna
85010	15.849556	40.477037	Calvello
85030	16.143697	40.148938	Calvera
85010	16.074307	40.568321	Campomaggiore
85010	15.926741	40.731259	Cancellara
85030	16.090333	40.143444	Carbone
85050	15.429678	40.785707	Castelgrande
85040	15.980786	40.004758	Castelluccio Inferiore
85040	15.975944	40.011426	Castelluccio Superiore
85010	16.045052	40.529195	Castelmezzano
85031	15.992833	40.164870	Castelsaraceno
85031	15.743926	40.782037	Frusci
85031	15.974995	40.161070	Miraldo
85030	16.185258	40.189369	Castronuovo di Sant'Andrea
85030	16.350874	40.048070	Cersosimo
85032	16.215630	40.125019	Chiaromonte
85012	16.041073	40.384310	Corleto Perticara
85033	16.099074	40.075963	Episcopia
85034	16.170206	40.114754	Fardella
85020	15.716574	40.832352	Dragonetti
85020	15.706719	40.811520	Filiano
85020	15.719722	40.860534	Scalera
85020	15.685501	40.787458	Sterpito di Sopra
85020	15.683463	40.797103	Sterpito di Sotto
85023	15.857352	40.859870	Forenza
85034	16.204241	40.080167	Francavilla in Sinni
85010	16.138959	40.289289	Gallicchio
85013	16.031741	40.848907	Genzano di Lucania
85020	15.733853	40.930271	Ginestra
85050	15.889704	40.283926	Grumento Nova
85010	16.100402	40.358291	Guardia Perticara
85042	15.762352	40.129389	Lagonegro
85043	16.056664	40.056271	Agromonte
85043	15.979670	40.071459	Cerri
85043	16.010853	40.090876	Latronico
85043	16.056278	40.055648	Magnano
85043	16.031260	40.059515	Mileo
85014	15.971578	40.458613	Laurenzana
85044	15.930051	40.094119	Cogliandrino
85044	15.879222	40.023130	Galdo
85044	15.837522	40.047866	Lauria
85044	15.816426	40.036259	Lauria inferiore
85044	15.888153	40.018814	Lauria superiore
85044	15.857297	40.072038	Pecorone
85044	15.949556	40.072519	Seluci
85024	15.895916	41.102371	Gaudiano
85024	15.791741	41.046741	Lavello
85046	15.674396	40.035427	Acquafredda
85046	15.702815	39.997519	Fiumicello Santa Venere
85046	15.718307	39.997931	Maratea
85046	15.709367	39.989293	Maratea Porto
85046	15.747733	39.983752	Massa
85052	15.764190	40.382468	Galaino
85052	15.735461	40.423969	Marsico Nuovo
85052	15.681454	40.431543	Pergola
85050	15.824098	40.376853	Marsicovetere
85050	15.824098	40.376853	Villa d'Agri
85020	15.829148	40.907548	Maschito
85025	15.574870	40.958907	Foggiano
85025	15.603606	41.077077	Leonessa di Melfi
85025	15.652370	40.997500	Melfi
85010	16.166889	40.283148	Missanello
85047	15.864389	40.242815	Moliterno
85020	15.970167	41.031111	Montemilone
85053	15.992204	40.297981	Montemurro
85054	15.497198	40.760600	Capo di Giano
85054	15.486732	40.753604	Muro Lucano
85040	15.801284	40.068600	Nemoli
85035	16.330648	40.087815	Noepoli
85015	15.987500	40.762815	Oppido Lucano
85026	15.985477	40.931411	Palazzo San Gervasio
85050	15.733778	40.379389	Paterno
85020	15.398804	40.836048	Pescopagano
85055	15.642372	40.641307	Picerno
85016	15.880465	40.747652	Pietragalla
85020	15.880465	40.747652	Pietragalla
85020	15.587267	40.960463	San Giorgio
85020	15.803511	40.732155	San Nicola
85010	16.062929	40.519381	Pietrapertosa
85010	15.771741	40.565630	Madonna del Pantano
85010	15.784074	40.574241	Pignola
85010	15.826741	40.573759	Rifreddo
85020	15.724704	40.870796	Avigliano Scalo
85100	15.772496	40.684090	Giuliano
85100	15.757667	40.673759	Montocchio
85020	15.802221	40.637243	Potenza
85100	15.802221	40.637243	Potenza
85027	15.672204	40.976722	Rapolla
85020	15.502020	40.847846	Rapone
85028	15.810970	40.639510	Monticchio
85028	15.569537	40.950315	Monticchio Bagni
85028	15.670963	40.926722	Rionero in Vulture
85020	15.725630	40.912981	Ripacandida
85040	15.757056	40.079074	Rivello
85040	15.688268	40.073986	San Costantino
85036	16.204074	40.213148	Roccanova
85048	16.040019	39.953759	Rotonda
85056	15.679197	40.718087	Ruoti
85020	15.542370	40.849852	Ruvo del Monte
85010	16.080019	40.677500	San Chirico Nuovo
85030	16.077067	40.190382	San Chirico Raparo
85030	16.305648	40.036889	San Costantino Albanese
85020	15.540169	40.818370	San Fele
85030	16.053907	40.240796	San Martino d'Agri
85030	16.334623	40.034242	San Paolo Albanese
85030	16.177399	39.980586	Mezzana Salice
85030	16.139041	40.021869	San Severino Lucano
85030	16.190170	40.043492	Villaneto
85050	15.559822	40.547049	Sant'Angelo Le Fratte
85037	16.272037	40.248463	San Brancato
85037	16.272037	40.248463	Sant'Arcangelo
85050	15.889628	40.248430	Sarconi
85050	15.678296	40.487815	Sasso di Castalda
85050	15.639163	40.543954	Satriano di Lucania
85050	15.552307	40.569769	Savoia di Lucania
85038	16.289870	40.148130	Senise
85039	15.967519	40.270333	Spinoso
85032	16.154011	40.127827	Teana
85030	16.258444	39.968759	Casa del Conte
85030	16.294826	39.978366	Terranova di Pollino
85050	15.677050	40.583750	Tito
85050	15.699294	40.607154	Tito Scalo
85017	16.017204	40.695333	Tolve
85057	15.789691	40.315410	Tramutola
85049	15.793451	39.994429	Piano dei Peri
85049	15.775648	40.027667	Trecchina
85018	15.986663	40.579856	Trivigno
85010	15.918926	40.668611	Vaglio Basilicata
85029	15.815796	40.962352	Venosa
85058	15.476111	40.605315	Mosileo
85058	15.508966	40.600739	Vietri di Potenza
85040	16.060004	39.992215	Pedali di Viggianello
85040	16.086689	39.973520	Viggianello
85059	15.897849	40.340298	Viggiano
88055	16.595550	39.025018	Albi
88055	16.641042	39.068243	Buturo
88055	16.594887	39.019045	San Giovanni
88050	16.448907	38.794241	Amaroni
88040	16.463148	38.942815	Amato
88050	16.769217	39.014546	Andali
88060	16.436259	38.681889	Argusto
88060	16.525315	38.569233	Badolato
88060	16.565944	38.574556	Badolato Marina
88050	16.787370	39.019074	Belcastro
88021	16.509546	38.827427	Borgia
88021	16.597037	38.817204	Roccelletta
88070	16.856927	38.936437	Botricello
88050	16.486407	38.882352	Caraffa di Catanzaro
88062	16.385720	38.650988	Cardinale
88062	16.383961	38.653918	Novalba
88040	16.455796	39.057833	Carlopoli
88040	16.437370	39.054870	Castagna
88100	16.587679	38.910599	Catanzaro
88100	16.615611	38.820769	Catanzaro lido
88100	16.600520	38.898248	Catanzaro sala
88100	16.623938	38.897526	Cava di Catanzaro
88100	16.581438	38.930053	Pontegrande
88100	16.599531	38.866854	Santa Maria di Catanzaro
88100	16.590019	38.958778	Sant'Elia
88100	16.597919	38.920097	Siano
88067	16.418148	38.720648	Cenadi
88067	16.430504	38.729557	Centrache
88050	16.744556	39.025019	Cerva
88064	16.411875	38.681058	Chiaravalle Centrale
88040	16.487056	39.023296	Cicala
88040	16.287375	39.070731	Conflenti
88040	16.287951	39.071094	Conflenti Inferiore
88040	16.257163	39.033593	San Mazzeo
88020	16.412275	38.839341	Cortale
88050	16.782197	38.968877	Cropani
88051	16.782197	38.968877	Cropani
88050	16.809122	38.923619	Cropani Marina
88050	16.779259	38.988411	Cuturella
88022	16.264537	38.836741	Acconia
88022	16.314222	38.827370	Curinga
88060	16.487037	38.648444	Davoli
88060	16.546585	38.667971	Marina di Davoli
88041	16.353311	39.070228	Adami
88041	16.366450	39.036907	Cerrisi
88041	16.355944	39.048926	Decollatura
88041	16.346265	39.050052	San Bernardo
88040	16.171956	39.003408	Castiglione Marittimo
88040	16.171956	39.003408	Falerna
88042	16.171956	39.003408	Falerna
88040	16.156283	38.973505	Falerna Scalo
88040	16.388356	38.962541	Feroleto Antico
88040	16.403957	38.972320	Ievoli
88050	16.578627	38.996876	Fossato Serralta
88060	16.461074	38.676943	Gagliato
88060	16.507029	38.740479	Gasperina
88045	16.553552	38.957775	Cavora
88045	16.529514	38.975252	Gimigliano
88045	16.505057	38.988676	Gimigliano inferiore
88024	16.425019	38.825315	Girifalco
88040	16.204241	38.981111	Gizzeria
88040	16.216497	38.930515	Gizzeria lido
88060	16.504389	38.506111	Guardavalle
88065	16.504389	38.506111	Guardavalle
88060	16.577352	38.482037	Guardavalle Marina
88060	16.555060	38.602982	Isca Marina
88060	16.516071	38.600870	Isca sullo Ionio
88020	16.380875	38.847041	Jacurso
88046	16.239947	38.989409	Acquafredda
88046	16.308080	38.974372	Bella di Lamezia terme
88046	16.260963	38.968611	Caronte
88046	16.349556	38.982667	Fronti
88046	16.274556	38.984556	Gabella
88046	16.316736	38.973704	Lamezia Terme
88046	16.319529	38.975115	Nicastro
88046	16.283312	38.966636	Sambiase
88046	16.291968	38.935948	San Pietro Lametino
88046	16.254527	38.921101	Santa Eufemia lamezia
88046	16.345167	38.971741	Zangarona
88050	16.628191	39.012683	Magisano
88050	16.344389	38.847037	San Pietro
88025	16.365033	38.859379	Maida
88050	16.837204	39.028926	Marcedusa
88044	16.490317	38.927840	Marcellinara
88040	16.248419	39.082142	Martirano
88040	16.232815	39.075796	Martirano Lombardo
88040	16.472745	38.949223	Miglierina
88060	16.514074	38.749870	Montauro
88060	16.541469	38.728663	Montauro stazione
88060	16.499886	38.721459	Montepaone
88060	16.541475	38.728796	Montepaone lido
88040	16.288366	39.089083	Motta Santa Lucia
88040	16.133905	39.005408	Marina di Nocera terinese
88040	16.159632	39.036454	Nocera Terinese
88047	16.159632	39.036454	Nocera Terinese
88067	16.423561	38.726598	Olivadi
88050	16.453066	38.749865	Palermiti
88050	16.583463	38.986889	Pentone
88050	16.585542	38.964710	Scoppolise
88060	16.472715	38.701969	Petrizzi
88050	16.758200	39.043233	Petrona
88040	16.389222	38.955333	Pianopoli
88040	16.320967	39.006516	Platania
88021	16.519528	38.838772	San Floro
88040	16.194226	39.062911	San Mango d'Aquino
88025	16.344389	38.847037	San Pietro a Maida
88040	16.469620	39.004637	San Pietro Apostolo
88060	16.487465	38.638446	San Sostene
88060	16.555067	38.655091	San sostene Marina
88060	16.521330	38.533434	Santa Caterina dello Ionio
88060	16.569595	38.527650	Santa Caterina dello Ionio Marina
88060	16.529670	38.623459	Sant'Andrea Apostolo dello Ionio
88060	16.549241	38.620648	Sant'Andrea ionio Marina
88067	16.410646	38.712823	San Vito sullo Ionio
88060	16.482073	38.667952	Satriano
88050	16.628328	38.981753	Sellia
88050	16.752107	38.915830	Calabricata
88050	16.714648	38.887244	La Petrizia
88050	16.743601	38.906388	Sellia Marina
88050	16.725590	38.912554	Uria
88040	16.369222	38.976889	Accaria Rosaria
88040	16.437352	38.972370	Angoli
88040	16.431741	38.940315	Cancello
88040	16.433296	38.955481	Migliuso
88040	16.417152	38.960525	San Michele
88040	16.424870	39.018778	Serrastretta
88054	16.727916	39.012065	Sersale
88040	16.536730	38.892454	Martelletto
88040	16.514608	38.912604	Settingiano
88050	16.642506	38.956071	Crichi
88050	16.662235	38.934072	Simeri
88050	16.641097	38.954854	Simeri Crichi
88050	16.568969	39.020144	Sorbo San Basile
88068	16.549955	38.687787	Soverato
88068	16.550801	38.686104	Soverato Marina
88068	16.534239	38.690906	Soverato Superiore
88049	16.475933	39.005785	Colla
88049	16.379713	39.086343	San Tommaso
88049	16.372833	39.083907	Soveria Mannelli
88050	16.678792	38.947773	Soveria Simeri
88069	16.513148	38.780648	Squillace
88069	16.568061	38.779477	Squillace lido
88069	16.565458	38.767158	Copanello
88069	16.540852	38.763979	Staletti
88055	16.582667	39.021015	Taverna
88055	16.560424	39.076677	Villaggio Mancuso
88055	16.544317	39.092934	Villaggio Racise
88040	16.534701	38.912295	Pratora
88040	16.510228	38.949331	Tiriolo
88056	16.510228	38.949331	Tiriolo
88060	16.367276	38.656228	Torre di Ruggiero
88050	16.459766	38.774965	Vallefiorita
88050	16.664556	39.000711	Zagarise
87010	16.090796	39.724241	Acquaformosa
87020	15.953530	39.495079	Acquappesa
87020	15.951463	39.493727	Acquappesa Marina
87020	15.959556	39.481574	Intavolata
87040	16.386146	39.491010	Acri
87041	16.386146	39.491010	Acri
87041	16.390019	39.511889	Duglia
87041	16.430648	39.495315	Montagnola
87040	16.463907	39.527352	San Giacomo d'Acri
87041	16.019537	39.424074	Serricella
87031	16.166851	39.117203	Aiello Calabro
87020	15.824389	39.928926	Aieta
87070	16.471111	39.923778	Albidona
87070	16.380936	39.959395	Alessandria del Carretto
87040	16.253093	39.128694	Altilia
87040	16.243907	39.133907	Maione
87042	16.131274	39.699302	Altomonte
87032	16.075481	39.134222	Amantea
87032	16.066688	39.162545	Amantea Marina
87032	16.092658	39.067445	Campora San giovanni
87032	16.089870	39.084852	Corica
87071	16.582314	39.952995	Amendolara
87071	16.609077	39.941104	Amendolara Marina
87051	16.340640	39.239687	Aprigliano
87051	16.455122	39.211406	Camarda di Aprigliano
87051	16.330315	39.241722	Vico
87033	16.085465	39.162477	Belmonte Calabro
87033	16.066688	39.162545	Belmonte calabro Marina
87033	16.106904	39.160765	Vadi
87030	16.289241	39.178296	Belsito
87021	15.862500	39.618907	Belvedere Marittimo
87021	15.875894	39.633047	Laise
87021	15.841617	39.644977	Marina di Belvedere Marittimo
87050	16.410988	39.102036	Bianchi
87043	16.287185	39.512603	Bisignano
87060	16.749852	39.420963	Bocchigliero
87020	15.899010	39.585787	Bonifati
87020	15.877839	39.559133	Cittadella del Capo
87020	15.899545	39.554966	Torrevecchia
87020	15.883496	39.690250	Buonvicino
87060	16.802885	39.562350	Calopezzati
87060	16.241741	39.420648	Marinella
87060	16.760796	39.506278	Caloveto
87061	16.823148	39.414704	Campana
87070	16.505167	40.095019	Canna
87062	16.960333	39.493296	Cariati
87062	16.944838	39.499961	Cariati Marina
87030	16.219532	39.254429	Carolei
87030	16.230167	39.282519	Vadue
87050	16.304031	39.148202	Carpanzano
87050	16.337352	39.285481	Casole Bruzio
87011	16.318285	39.785354	Cassano all'Ionio
87011	16.356426	39.731278	Doria
87011	16.469171	39.716333	Lattughelle
87011	16.318285	39.785354	Lauropoli
87011	16.470315	39.717204	Pianoscafo
87011	16.454241	39.748296	Sibari
87011	16.454241	39.748296	Sibari stazione
87040	16.286252	39.351135	Castiglione Cosentino
87040	16.218463	39.309222	Andreotta
87040	16.194501	39.308651	Castrolibero
87040	16.217044	39.327678	Ortomatera
87070	16.478444	39.993444	Castroregio
87070	16.403199	40.014567	Farneta
87012	16.202563	39.812424	Castrovillari
87012	16.206411	39.820840	Vigne di Castrovillari
87052	16.340796	39.311278	Celico
87053	16.340796	39.311278	Celico
87052	16.407833	39.353926	Fago del soldato
87050	16.335402	39.219463	Cellara
87070	16.383157	39.860603	Cerchiara di Calabria
87070	16.428192	39.829708	Piana di Cerchiara
87044	16.176259	39.277204	Cerisano
87010	16.129241	39.543611	Cervicati
87040	16.111975	39.515975	Cavallerizzo
87040	16.115963	39.508926	Cerzeto
87040	16.817242	39.577539	San Giacomo
87022	15.973444	39.504222	Battendieri
87022	15.942042	39.517634	Cetraro
87022	15.937164	39.515610	Cetraro Marina
87022	15.830019	39.785333	San Filippo
87022	15.952719	39.555158	Sant'Angelo
87010	16.309120	39.829747	Civita
87030	16.159222	39.091259	Cleto
87030	16.165340	39.071883	Savuto
87050	16.397103	39.120189	Colosimi
87060	16.449704	39.665796	Cantinella
87060	16.518611	39.596111	Corigliano Calabro
87064	16.518611	39.596111	Corigliano Calabro
87064	16.513687	39.624624	Corigliano calabro stazione
87064	16.514074	39.627352	Corigliano Scalo
87064	16.552056	39.639222	Fabrizio
87064	16.539773	39.650142	Marina di Schiavonea
87064	16.518611	39.596111	Schiavonea
87064	16.483148	39.643148	Villaggio Frasso
87100	16.304086	39.271048	Borgo Partenope
87100	16.253809	39.298263	Cosenza
87100	16.292404	39.250256	Donnici Inferiore
87100	16.301434	39.250471	Donnici Superiore
87100	16.295481	39.267833	Sant'ippolito di Cosenza
87060	16.726702	39.517634	Cropalati
87060	16.772803	39.567952	Crosia
87060	16.768879	39.605693	Mirto
87023	15.810333	39.715630	Cirella
87023	15.825113	39.677170	Diamante
87045	16.253907	39.238611	Dipignano
87045	16.239971	39.278210	Laurignano
87045	16.241955	39.256527	Tessano
87030	16.206647	39.220207	Domanico
87013	16.054284	39.565996	Fagnano Castello
87030	16.092633	39.277026	Falconara Albanese
87030	16.058148	39.270315	Torremezzo di Falconara
87050	16.330290	39.226313	Figline Vegliaturo
87010	16.171111	39.722519	Firmo
87030	16.070481	39.235481	Fiumefreddo Bruzio
87030	16.065067	39.236086	Marina di Fiumefreddo Bruzio
87030	16.062370	39.232037	Reggio
87030	16.090648	39.225000	San Biase
87030	16.062370	39.232037	Scornavacca
87030	16.061171	39.247912	Stazione di Fiumefreddo bruzio
87072	16.389537	39.822500	Francavilla Marittima
87010	16.274249	39.833091	Eianina
87010	16.262815	39.837519	Frascineto
87024	16.018673	39.432840	Cariglio
87024	16.030630	39.415315	Fuscaldo
87024	16.006435	39.421042	Marina di Fuscaldo
87024	16.024556	39.399537	Scarcelli
87034	16.236574	39.143148	Grimaldi
87020	15.854447	39.724723	Grisolia
87020	15.999616	39.466972	Guardia Piemontese
87020	15.980944	39.464074	Guardia Piemontese Marina
87020	15.999046	39.466576	Guardia Piemontese terme
87035	16.181704	39.156102	Aria di Lupi
87035	16.133611	39.162815	Greci
87035	16.149709	39.167119	Lago
87035	16.142244	39.135996	Terrati
87014	15.974389	39.955315	Laino Borgo
87015	15.977800	39.939218	Laino Castello
87050	16.313611	39.320963	Lappano
87010	16.138189	39.464415	Lattarico
87010	16.160333	39.453759	Regina
87030	16.077352	39.208130	Longobardi
87030	16.060720	39.212094	Longobardi Marina
87060	16.074556	39.246426	Destro
87060	16.611426	39.449389	Longobucco
87066	16.611426	39.449389	Longobucco
87010	16.125481	39.739389	Lungro
87040	16.253609	39.295395	Deposito di Luzzi
87040	16.289241	39.447204	Luzzi
87040	16.315315	39.449556	Timparello
87020	15.850030	39.717057	Maiera
87030	16.249288	39.155772	Malito
87010	16.054241	39.600796	Malvito
87060	16.831483	39.466163	Mandatoriccio
87050	16.332502	39.205698	Mangone
87050	16.312346	39.211388	Pian del lago
87040	16.174704	39.317037	Marano Marchesato
87040	16.175944	39.300630	Marano Principato
87050	16.307370	39.171889	Marzi
87040	16.192669	39.260594	Mendicino
87040	16.231869	39.292589	Rosario
87040	16.187706	39.267184	San bartolo
87040	16.203486	39.275888	Tivolille
87040	16.111935	39.525432	Mongrassano
87040	16.222512	39.538237	Stazione di Mongrassano
87046	16.158926	39.405963	Caldopiano
87040	16.158926	39.405963	Montalto Uffugo
87046	16.158926	39.405963	Montalto Uffugo
87040	16.244655	39.352498	Montalto uffugo Scalo
87046	16.132945	39.401729	Parantoro
87040	16.228759	39.432981	Taverna di Montalto Uffugo
87046	16.134763	39.412921	Vaccarizzo
87070	16.535333	40.044074	Montegiordano
87070	16.599024	40.035789	Montegiordano Marina
87016	16.137359	39.842878	Morano Calabro
87026	15.987667	39.889389	Mormanno
87010	16.064263	39.649887	Mottafollone
87070	16.483476	40.099634	Nocara
87073	16.447053	40.054845	Oriolo
87020	15.908063	39.800313	Orsomarso
87060	16.683778	39.531278	Paludi
87050	16.454594	39.059983	Panettieri
87027	16.079182	39.184590	Fosse
87027	16.040474	39.360940	Paola
87027	16.030982	39.360321	Paola Marina
87027	16.037204	39.388907	San Miceli
87027	16.046426	39.370315	Santuario San Francesco
87020	15.907525	39.872624	Papasidero
87040	16.411426	39.163296	Parenti
87040	16.267533	39.229783	Casal di Basso
87040	16.268589	39.227379	Paterno Calabro
87050	16.337523	39.275491	Pedace
87050	16.329178	39.273380	Perito
87050	16.362381	39.105587	Borboruso
87050	16.301226	39.109624	Pedivigliano
87050	16.325178	39.234026	Piane Crati
87050	16.341376	39.261352	Pietrafitta
87060	16.852416	39.547979	Camigliano
87060	16.815578	39.487278	Pietrapaola
87060	16.861058	39.540295	Pietrapaola stazione
87060	16.844491	39.528487	Vecchiarello
87070	16.433734	39.899343	Plataci
87028	15.778928	39.900125	Praia a Mare
87036	16.211440	39.357757	Arcavacata
87036	16.238842	39.352644	Castiglione cosentino stazione
87036	16.244561	39.329862	Commenda
87036	16.242156	39.353969	Quattromiglia
87036	16.181456	39.331548	Rende
87036	16.242581	39.330211	Roges
87036	16.319074	39.193611	Santo Stefano
87036	16.209599	39.327728	Surdo
87074	16.581111	40.110796	Rocca Imperiale
87074	16.614222	40.099537	Rocca imperiale Marina
87017	16.160851	39.618881	Roggiano Gravina
87054	16.321889	39.182370	Rogliano
87054	16.435975	39.183669	Saliano
87040	16.288148	39.399537	Rose
87070	16.622500	39.972204	Borgata Marina
87070	16.599369	39.988094	Roseto Capo Spulico
87070	16.620206	39.972804	Roseto Capo spulico stazione
87067	16.678933	39.601694	Amica
87067	16.574870	39.611574	Piragineti
87067	16.634160	39.576392	Rossano
87067	16.634623	39.599146	Rossano Stazione
87010	16.113444	39.469537	Rota Greca
87050	16.322056	39.309074	Rovito
87010	16.164241	39.810630	San Basile
87040	16.124704	39.428130	San Benedetto Ullano
87060	16.421111	39.584241	San Cosmo Albanese
87069	16.381361	39.580523	Macchia albanese
87069	16.362898	39.570359	San Demetrio Corone
87010	16.051407	39.689389	Policastrello
87010	16.048603	39.709483	San Donato di Ninea
87037	16.131511	39.348989	Bucita
87037	16.143953	39.339001	San Fili
87020	15.867037	39.588759	Le crete
87020	15.914599	39.605451	Sangineto
87020	15.864221	39.587676	Sangineto lido
87060	16.454389	39.583463	San Giorgio Albanese
87055	16.511716	39.252052	Lorica
87055	16.071758	39.133634	Monte oliveto
87055	16.698903	39.260236	San Giovanni in Fiore
87070	16.331145	39.889070	San Lorenzo Bellizzi
87040	16.298296	39.669222	San Lorenzo del Vallo
87038	16.051879	39.319684	Pollella
87038	16.051741	39.310019	San Lucido
87018	16.120745	39.559653	San Marco Argentano
87018	16.222512	39.538237	San Marco Argentano stazione
87010	16.108350	39.490021	San Martino di Finita
87010	16.142640	39.476923	Santa Maria le Grotte
87020	15.794222	39.847056	San Nicola Arcella
87030	16.112519	39.137519	San Pietro in Amantea
87047	16.318148	39.354537	Redipiano
87047	16.303778	39.342056	San benedetto in guarano
87047	16.312352	39.343296	San Pietro in Guarano
87010	16.028444	39.660000	San Sosti
87010	16.079710	39.576218	Ioggi
87010	16.071259	39.587056	Santa Caterina Albanese
87020	15.855481	39.820648	Santa Domenica Talao
87010	15.984704	39.623926	Sant'Agata di Esaro
87020	15.806407	39.752500	Granata
87020	15.824395	39.767673	Marcellina
87020	15.837370	39.747370	Santa Maria del Cedro
87048	16.329852	39.547500	Santa Sofia d'Epiro
87056	16.319074	39.193611	Santo Stefano di Rogliano
87030	16.134371	39.360160	Gesuiti
87030	16.151815	39.366945	San Vincenzo la Costa
87010	16.157500	39.779852	Saracena
87060	16.874528	39.491286	San Morello
87060	16.885767	39.449554	Scala Coeli
87029	15.790918	39.814514	Scalea
87057	16.307084	39.128891	Calvisi
87057	16.315019	39.128759	Diano
87057	16.306722	39.128444	Scigliano
87030	16.129042	39.090499	Serra d'Aiello
87050	16.347830	39.277775	Serra Pedace
87050	16.525315	39.297500	Silvana Mansio
87019	16.311426	39.669852	Spezzano Albanese
87019	16.290934	39.712819	Spezzano Albanese stazione
87019	16.296661	39.689339	Spezzano Albanese terme
87052	16.441055	39.338474	Camigliatello Silano
87052	16.482370	39.327500	Croce di Magara
87052	16.420915	39.337801	Moccone
87052	16.339537	39.302352	Spezzano della Sila
87058	16.339537	39.302352	Spezzano della Sila
87050	16.343131	39.289592	Spezzano Piccolo
87040	16.271263	39.621762	Tarsia
87010	16.340315	39.657981	Terranova da Sibari
87060	16.946889	39.465944	Terravecchia
87010	16.174693	39.509846	Sartano
87010	16.145732	39.505949	Torano Castello
87010	16.221259	39.535796	Torano castello Scalo
87020	15.805983	39.941925	Tortora
87020	15.766426	39.922352	Tortora Marina
87075	16.531240	39.872139	Trebisacce
87050	16.311889	39.278907	Magli
87050	16.281426	39.282981	Morelli
87050	16.322370	39.286278	Trenta
87060	16.433759	39.586407	Vaccarizzo Albanese
87020	15.915921	39.757118	Verbicaro
87076	16.456111	39.847500	Villapiana
87076	16.489556	39.811426	Villapiana lido
87076	16.480481	39.789556	Villapiana Scalo
87040	16.276889	39.306259	Malavicina
87040	16.292981	39.312063	Zumpano
88824	16.888037	39.213500	Belvedere di Spinello
88833	16.777867	39.227293	Caccuri
88817	16.974784	39.307381	Carfizzi
88822	16.957352	39.251426	Casabona
88822	16.915893	39.260958	Zinga
88834	16.768931	39.271414	Castelsilano
88833	16.781889	39.245481	Cerenzia
88813	17.062504	39.383458	Ciro
88811	17.131475	39.370789	Ciro Marina
88836	16.781722	39.159222	Cotronei
88900	17.127079	39.080739	Crotone
88900	17.027463	39.071649	Papanice
88900	17.102831	39.107817	Villaggio Bucchi
88812	17.003130	39.424870	Crucoli
88812	17.038907	39.452352	Torretta
88842	16.982833	39.036426	Cutro
88842	16.984074	38.954074	San leonardo di Cutro
88842	16.924556	38.938926	Steccato di Cutro
88841	17.094241	38.961111	Isola di Capo Rizzuto
88841	17.022755	38.909728	Le Castella
88841	17.074074	39.004556	Sant'Anna
88814	17.030630	39.309704	Melissa
88814	17.107370	39.306889	Torre Melissa
88838	16.789346	39.078644	Filippa
88838	16.790224	39.078191	Mesoraca
88818	16.907476	39.308495	Pallagorio
88837	16.766861	39.129894	Camellino
88837	16.814074	39.101278	Foresta
88837	16.751595	39.140722	Pagliarelle
88837	16.786426	39.115019	Petilia Policastro
88835	16.871329	39.134124	Roccabernarda
88821	17.014653	39.161146	Corazzo
88821	17.002697	39.191345	Rocca di Neto
88831	16.927451	39.107018	San Mauro Marchesato
88817	16.973759	39.290315	San Nicola dell'Alto
88832	16.881914	39.182383	Altilia
88832	16.915690	39.147636	Santa Severina
88825	16.778450	39.312638	Savelli
88831	16.959576	39.123574	Scandale
88815	17.105019	39.228759	Marina di Strongoli
88815	17.051082	39.266076	Strongoli
88816	17.051082	39.266076	Strongoli
88823	16.895676	39.340708	Perticaro
88823	16.918960	39.353774	Umbriatico
88819	16.861259	39.312204	Verzino
89030	16.134074	38.051722	Africo
89040	16.223759	38.303759	Agnana Calabra
89020	16.083046	38.436042	Anoia
89020	16.081418	38.435266	Anoia Inferiore
89020	16.097199	38.431711	Anoia Superiore
89040	16.148805	38.272127	Antonimina
89031	16.167414	38.192692	Ardore
89037	16.167414	38.192692	Ardore
89037	16.210069	38.180011	Ardore Marina
89031	16.173336	38.205467	Bombile
89031	15.697276	38.150632	San Nicola
89060	15.822370	38.027833	Bagaladi
89011	15.808182	38.288488	Bagnara Calabra
89011	15.832253	38.302637	Ceramida
89011	16.119241	37.990796	Marinella
89011	15.824573	38.294737	Pellegrina
89011	15.808900	38.287409	Porelli di Bagnara
89011	15.800373	38.256832	Solano Inferiore
89030	16.128759	38.143130	Belloro
89030	16.141358	38.186334	Benestare
89032	16.150167	38.091722	Bianco
89032	16.122056	38.081889	Pardesca
89040	16.453463	38.484389	Bivongi
89033	15.932833	37.996278	Bova
89034	16.141377	38.134122	Bosco Sant'ippolito
89034	16.174852	38.150000	Bovalino
89034	16.178450	38.151699	Bovalino Marina
89034	16.157658	38.169736	Bovalino Superiore
89035	15.918463	37.931407	Bova Marina
89036	16.101259	37.964074	Brancaleone
89036	16.103670	37.968302	Brancaleone Marina
89036	16.062806	37.924582	Capo Spartivento
89036	16.067037	37.931407	Galati
89030	16.083444	38.014389	Bruzzano Zeffirio
89030	16.051467	38.027861	Motticella
89050	15.723907	38.184870	Calanna
89050	15.711696	38.198050	Villa Mesa
89040	16.483972	38.432931	Camini
89052	15.660159	38.216982	Campo Calabro
89020	16.087204	38.506574	Candidoni
89040	16.200796	38.316111	Canolo
89040	16.161938	38.332095	Canolo nuova
89030	16.086467	38.092498	Caraffa del Bianco
89060	15.767519	38.085630	Cardeto
89030	16.118778	38.177667	Careri
89030	16.086426	38.187037	Natile nuovo
89030	16.051258	38.188220	Natile vecchio
89030	16.091114	38.102463	Casignana
89040	16.398793	38.447784	Campoli di Caulonia
89040	16.409852	38.382519	Caulonia
89041	16.409852	38.382519	Caulonia
89040	16.464397	38.345488	Caulonia Marina
89040	16.374311	38.413432	San Nicola di Caulonia
89040	16.400159	38.413488	Ursini
89040	16.138042	38.246060	Cimina
89021	16.094907	38.418190	Cinquefrondi
89022	16.080630	38.356259	Cittanova
89030	15.858435	38.005287	Condofuri
89030	15.877626	37.929693	Condofuri Marina
89030	15.880224	37.931371	San Carlo
89050	15.929904	38.275776	Cosoleto
89050	15.937160	38.283387	Sitizano
89012	15.917375	38.235401	Delianuova
89050	16.064704	38.465732	Feroleto della Chiesa
89050	16.076529	38.473951	Plaesano
89030	16.133337	38.018068	Canalello
89030	16.087449	38.038714	Ferruzzano
89050	15.694537	38.213759	Fiumara
89054	16.111279	38.461172	Galatro
89040	16.219764	38.271231	Gerace
89020	16.149004	38.438974	Giffone
89013	15.899852	38.425000	Gioia Tauro
89013	15.888108	38.434948	Marina di Gioia Tauro
89042	16.301988	38.335478	Gioiosa Ionica
89043	15.653342	38.063944	Croce ferrata
89043	16.265796	38.366574	Grotteria
89050	15.742327	38.174618	Laganadi
89023	16.090983	38.497539	Bellantone
89023	16.082981	38.493778	Laureana di Borrello
89023	16.082979	38.484708	Stelletanone
89044	16.259896	38.236415	Locri
89044	16.210630	38.255167	Merici
89044	16.230632	38.224568	Moschetta
89045	16.240715	38.364667	Mammola
89046	16.329327	38.299639	Marina di Gioiosa Ionica
89020	16.099312	38.440575	Maropati
89020	16.101574	38.449704	Tritanti
89040	16.289241	38.355000	Martone
89020	15.882204	38.304852	Melicucca
89020	16.059682	38.433170	Melicucco
89063	15.754948	37.926676	Anna
89063	15.796574	37.958444	Caredia
89063	15.823130	38.096111	Lacco
89063	15.785680	37.920721	Melito di Porto Salvo
89063	15.761114	37.950388	Pentedattilo
89063	15.795042	37.942915	Prunella
89010	16.030167	38.308296	Molochio
89040	16.551326	38.453973	Monasterace
89040	16.578150	38.444032	Monasterace Marina
89060	15.767815	38.014222	Fossato ionico
89064	15.755571	37.967111	Masella
89060	15.758749	37.984206	Montebello Ionico
89064	15.758749	37.984206	Montebello Ionico
89060	15.710688	37.939330	Saline ioniche
89062	15.659556	37.978907	Lazzaro
89062	15.703077	38.002740	Motta San Giovanni
89065	15.703077	38.002740	Motta San Giovanni
89014	15.940481	38.317833	Castellace
89014	15.996571	38.299615	Messignadi
89014	15.984869	38.294545	Oppido Mamertina
89014	16.009074	38.270180	Piminoro
89014	15.982242	38.298167	Tresilico
89014	15.980340	38.294425	Zurgonadio
89038	15.987195	37.967058	Palizzi
89038	15.989230	37.918920	Palizzi Marina
89038	15.987195	37.967058	Pietrapennata
89015	15.836325	38.352419	Palmi
89015	15.871423	38.394396	Taureana
89015	15.858286	38.365494	Trodio
89040	16.451902	38.475743	Pazzano
89040	16.447229	38.416548	Placanica
89040	16.098949	38.234181	Cirella
89039	16.047352	38.221111	Plati
89040	16.047352	38.221111	Plati
89024	16.072943	38.405686	Polistena
89040	16.200971	38.230162	Portigliola
89121	15.661781	38.146261	Reggio Calabria
89122	15.667647	38.124837	Reggio Calabria
89123	15.654449	38.117609	Reggio Calabria
89124	15.661781	38.115322	Reggio Calabria
89125	15.647851	38.110125	Reggio Calabria
89126	15.746854	38.137220	Reggio Calabria
89127	15.639786	38.104129	Reggio Calabria
89128	15.657382	38.101735	Reggio Calabria
89129	15.638320	38.082399	Reggio Calabria
89131	15.705779	38.075791	Reggio Calabria
89132	15.648584	38.090034	Reggio Calabria
89133	15.723381	38.099181	Reggio Calabria
89134	15.676446	38.043660	Reggio Calabria
89135	15.676446	38.188069	Reggio Calabria
89040	16.481200	38.419219	Riace
89040	16.525333	38.390333	Riace Marina
89016	15.936929	38.376644	Cirello
89016	15.957370	38.427370	Drosi
89016	15.959074	38.411889	Rizziconi
89016	15.987981	38.418148	Spina
89060	15.926129	38.056132	Ghorio
89060	15.896447	38.048097	Roccaforte del Greco
89047	16.401722	38.323148	Roccella Ionica
89060	15.916734	38.049655	Roghudi
89060	15.848144	38.041800	Roghudi nuovo
89025	16.330864	38.578028	Bosco
89025	15.976367	38.487326	Rosarno
89030	16.055206	38.075375	Samo
89026	15.918571	38.482554	San Ferdinando
89017	16.106040	38.386993	San Giorgio Morgeto
89040	16.278611	38.366278	San Giovanni di Gerace
89060	15.813581	37.988304	Chorio
89060	15.833768	37.921669	Marina di San Lorenzo
89060	15.818369	38.000014	San fantino
89060	15.835176	38.008728	San Lorenzo
89069	15.835176	38.008728	San Lorenzo
89060	15.843783	37.988546	San Pantaleone
89030	16.064801	38.147138	San Luca
89030	16.006988	38.065329	Santuario di Polsi
89020	16.051242	38.357312	San Pier Fedele
89020	16.136278	38.524870	San Pietro di Carida
89020	15.891259	38.282370	San Procopio
89050	15.760430	38.208793	Acquacalda
89050	15.724654	38.213165	Colelli
89050	15.738591	38.211731	San Roberto
89056	15.949389	38.270853	Lubrichi
89056	15.971421	38.256402	Santa Cristina d'Aspromonte
89030	16.082519	38.094241	Sant'Agata del Bianco
89050	15.758778	38.173778	Sant'Alessio in Aspromonte
89027	15.854260	38.264162	Sant'Eufemia d'Aspromonte
89040	16.183458	38.207494	Condojanni
89040	16.226006	38.198844	Marina di Sant'ilario dello Ionio
89040	16.195552	38.219300	Sant'Ilario dello Ionio
89057	15.835952	38.167372	Gambarie
89057	15.790000	38.170333	Santo Stefano in Aspromonte
89010	15.933611	38.244704	Scido
89058	15.759473	38.261754	Favazzina
89058	15.756420	38.229691	Melia
89058	15.715217	38.253713	Scilla
89028	15.849851	38.331320	Barritteri
89028	16.142401	38.070858	Sant'Anna
89028	15.870481	38.334852	Seminara
89020	16.100089	38.512584	Serrata
89048	16.306402	38.291712	Donisi
89040	16.297076	38.270416	Siderno
89048	16.297076	38.270416	Siderno
89048	16.295889	38.267486	Siderno Marina
89040	16.268777	38.290553	Siderno Superiore
89020	15.878415	38.263738	Sinopoli
89020	15.885827	38.261757	Sinopoli inferiore
89030	16.033300	37.999948	Staiti
89040	16.471278	38.417204	Stignano
89049	16.469222	38.478130	Stilo
89029	15.961574	38.373907	Amato di Taurianova
89029	15.974556	38.363611	San Martino
89029	16.011722	38.357352	Taurianova
89010	16.006928	38.322489	Terranova Sappo Minulio
89010	15.984057	38.314893	Varapodio
89018	15.639316	38.210687	Acciarello
89018	15.648235	38.233057	Cannitello
89018	15.659851	38.233498	Ferrito
89018	15.673160	38.240923	Pezzo di Villa San giovanni
89018	15.636917	38.217059	Villa San Giovanni
89832	16.188148	38.555963	Acquaro
89832	16.173569	38.542469	Limpidi
89832	16.210387	38.562487	Arena
89817	16.029821	38.725517	Briatico
89817	16.045648	38.702500	Paradisoni
89817	16.003692	38.690955	Potenzoni
89817	16.003605	38.706728	San Costantino
89817	16.032519	38.692500	Sciconi
89822	16.342370	38.602352	Brognaturo
89818	16.289943	38.691286	Capistrano
89816	16.025721	38.663115	Cessaniti
89816	16.028148	38.682037	Favelloni
89816	16.043753	38.692002	Pannaconi
89816	16.013482	38.682815	San Cono
89832	16.196217	38.565648	Dasa
89833	16.147197	38.527764	Dinami
89833	16.158567	38.536576	Melicucca' di Dinami
89833	16.163701	38.515178	Monsoreto
89862	15.887056	38.643611	Brattiro
89862	15.903778	38.647833	Caria
89862	15.909691	38.664395	Drapia
89862	15.904261	38.663667	Gasponi
89823	16.300033	38.485051	Fabrizia
89814	16.287370	38.785481	Filadelfia
89814	16.291800	38.817072	Montesoro
89814	16.309346	38.803587	Scarro
89841	16.044897	38.622849	Arzona
89841	16.032371	38.615850	Filandari
89841	16.250461	38.622754	Pizzinni
89843	16.228634	38.681223	Filogaso
89815	16.270177	38.777787	Francavilla Angitola
89851	16.100167	38.616722	Francica
89831	16.212846	38.576466	Ciano
89831	16.219004	38.588376	Gerocarne
89831	16.169296	38.614272	Sant'Angelo
89851	16.062059	38.630046	Ionadi
89851	16.064251	38.632351	Nao
89863	15.905251	38.595440	Caroniti
89863	15.870873	38.604330	Coccorino
89863	15.895612	38.586089	Joppolo
89844	15.961567	38.568382	Caroni
89844	15.965386	38.557404	Limbadi
89844	15.986611	38.682556	Mandaradoni
89844	15.984167	38.577201	Motta Filocastro
89843	16.190023	38.707411	Maierato
89852	16.058778	38.570648	Comparni
89852	16.070490	38.610647	Mileto
89852	16.056329	38.593134	Paravati
89852	15.974264	38.676369	San Giovanni
89823	16.320307	38.513890	Mongiana
89819	16.291889	38.717981	Monterosso Calabro
89824	16.343463	38.473463	Nardodipace
89844	15.955648	38.564704	Badia
89844	15.936426	38.581889	Comerconi
89844	15.938920	38.555321	Marina di Nicotera
89844	15.937500	38.555630	Nicotera
89844	15.922644	38.576583	Preitoni
89861	15.930922	38.675907	Fitili
89861	15.923463	38.682056	Parghelia
89812	16.164259	38.735776	Pizzo
89812	16.113465	38.714294	Pizzo Marina
89834	16.250461	38.622754	Pizzoni
89813	16.310989	38.747079	Menniti
89813	16.312495	38.751904	Polia
89813	16.317500	38.756574	Trecroci
89866	15.869310	38.636301	Barbalaconi
89866	15.872734	38.634390	Lampazzone
89866	15.868130	38.626407	Ricadi
89866	15.851259	38.633907	San Nicolo
89866	15.865481	38.664870	Santa Domenica
89841	16.001485	38.590768	Moladi
89841	16.005963	38.610648	Pernocari
89841	16.017689	38.607772	Presinaci
89841	16.002500	38.592815	Rombiolo
89842	16.209756	39.502510	Calimera calabra
89842	16.021278	38.576741	San Calogero
89851	16.074870	38.633463	San Costantino Calabro
89853	16.105524	38.643496	San Gregorio d'Ippona
89821	16.285630	38.664704	San Nicola da Crissa
89843	16.143605	38.695204	Sant'Onofrio
89822	16.330864	38.578028	Serra San Bruno
89822	16.335146	38.612105	Simbario
89831	16.231552	38.592166	Sorianello
89831	16.229572	38.597619	Soriano Calabro
89822	16.337815	38.604852	Spadola
89864	15.892495	38.623322	Panaia
89864	15.905804	38.628487	Spilinga
89843	16.125000	38.678907	Stefanaconi
89861	15.896274	38.679103	Tropea
89821	16.292671	38.647127	Vallelonga
89834	16.248843	38.633774	Vazzano
89900	16.126297	38.711502	Longobardi
89900	16.112043	38.663468	Piscopio
89900	16.075367	38.709949	Porto Salvo
89900	16.067204	38.683907	Triparni
89900	16.060179	38.657758	Vena
89900	16.113465	38.714294	Vibo Marina
89900	16.097660	38.675610	Vibo Valentia
89867	15.930630	38.665963	Zaccanopoli
89868	15.951774	38.682036	Daffina
89868	15.974264	38.676369	San giovanni di zambrone
89868	15.990944	38.700333	Zambrone
89867	15.982737	38.655849	Zungri
83020	14.821722	40.890167	Aiello del Sabato
83020	15.015122	41.192098	Tavernola San Felice
83011	14.778408	41.005534	Altavilla Irpina
83040	15.306954	40.960463	Alvano
83040	15.325796	40.938444	Andretta
83040	15.320536	40.949117	Mattinella
83041	15.475315	40.987833	Aquilonia
83031	15.087580	41.152519	Ariano Irpino
83031	15.118367	41.182325	Ariano Scalo
83031	15.087539	41.116628	La Manna
83031	15.113444	41.113611	Orneta
83031	15.022204	41.155315	Palazzisi
83042	14.825648	40.916889	Atripalda
83021	14.601407	40.960019	Avella
83100	14.792723	40.914749	Avellino
83100	14.799222	40.891574	Bellizzi Irpino
83100	14.794271	40.942757	Picarelli
83100	14.771276	40.920023	Valle Ponticelli
83043	15.070243	40.831716	Bagnoli Irpino
83043	15.114072	40.802754	Villaggio Laceno
83022	14.617667	40.953611	Baiano
83044	15.375326	41.013878	Bisaccia
83044	15.358926	41.010167	Bisaccia nuova
83044	15.366500	41.013310	Piano regolatore
83032	15.002370	41.098759	Bonito
83032	14.963947	41.082293	Morroni
83040	15.367601	40.894848	Cairano
83040	15.218203	40.786294	Calabritto
83040	15.235000	40.746111	Quaglietta
83045	15.438121	40.899988	Calitri
83040	14.875000	40.943444	Candida
83040	15.223975	40.815467	Caposele
83040	15.235939	40.817317	Materdomini
83010	14.778130	40.961426	Capriglia Irpina
83010	14.789222	40.955333	San Felice
83040	15.209852	41.027352	Carife
83034	15.007667	41.235019	Casalbore
83040	15.026889	40.871407	Cassano Irpino
83040	15.189704	41.048444	Castel Baronia
83040	15.044127	40.932428	Castelfranci
83040	14.987037	40.929870	Castelvetere sul Calore
83012	14.616857	41.022219	Cervinara
83012	14.641602	41.015110	Ioffredo
83012	14.615315	41.021407	Trescine
83020	14.828778	40.898130	Cesinali
83010	14.789471	41.046885	Chianche
83040	14.917370	40.934241	Chiusano di San Domenico
83020	14.779852	40.867056	Contrada
83040	15.335226	40.856337	Conza della Campania
83020	14.600481	40.889556	Casola
83020	14.588778	40.881111	Domicella
83040	15.148778	41.078926	Flumeri
83040	15.021093	41.018573	Fontanarosa
83020	14.752566	40.856179	Celzi
83020	14.737056	40.863778	Forino
83020	14.751965	40.868333	Petruro
83040	15.100630	41.012352	Frigento
83040	15.115019	41.003926	Pagliara
83040	15.104536	41.043112	Pila ai piani
83040	15.073463	41.007833	Gesualdo
83030	15.170000	41.252815	Greci
83035	15.053611	41.038130	Carpignano
83035	15.059852	41.070796	Grottaminarda
83010	14.787981	40.973759	Grottolella
83040	15.209870	40.954870	Guardia Lombardi
83046	15.424870	41.052370	Lacedonia
83030	14.947370	40.982204	Lapio
83023	14.622556	40.886281	Fontenovella
83023	14.633130	40.879222	Lauro
83023	14.616574	40.880019	Migliano
83047	15.188778	40.877500	Lioni
83040	14.991722	40.988296	Luogosano
83030	14.850630	40.942667	Manocalzati
83030	14.848926	40.953907	San barbato
83020	14.584870	40.903759	Marzano di Nola
83030	15.053296	41.104241	Melito Irpino
83013	14.736256	40.920635	Mercogliano
83013	14.718588	40.939238	Santuario di Montevergine
83013	14.728307	40.927047	Torelli
83013	14.749320	40.907632	Torrette
83036	14.941835	41.054906	Calore
83036	14.994190	41.042503	Mirabella Eclano
83036	15.013924	41.056462	Passo di Mirabella
83036	14.993067	41.062982	Pianopantano
83030	15.249241	41.249541	Montaguto
83037	15.034813	41.195784	Montecalvo Irpino
83030	14.884852	40.962500	Montefalcione
83024	14.764778	40.903993	Molinelle
83024	14.713469	40.891104	Monteforte Irpino
83030	14.833296	40.962056	Arcella
83030	14.811574	40.963926	Montefredane
83030	14.855963	41.038778	Montefusco
83030	14.880040	41.021454	Serra
83048	15.039919	40.860812	Fontana di Montella
83048	15.018759	40.844870	Montella
83048	15.008610	40.846779	Sorbo di Montella
83040	14.998611	40.916259	Montemarano
83038	14.889074	41.008148	Montaperto
83038	14.908296	41.012833	Montemiletto
83049	15.535000	41.000019	Monteverde
83025	14.784389	40.841722	Borgo
83025	14.757621	40.811184	Figlioli
83025	14.786259	40.815315	Misciano
83025	14.761474	40.824220	Montoro Inferiore
83025	14.761900	40.824731	Piano
83025	14.773444	40.809222	Piazza di Pandola
83025	14.764216	40.830839	Preturo
83026	14.812594	40.819187	Aterrana
83026	14.799941	40.817969	Banzano
83026	14.810515	40.827123	Caliano
83026	14.799941	40.817969	Montoro Superiore
83026	14.970050	41.047409	San Pietro
83026	14.804876	40.820622	Torchiati
83040	15.243759	40.930000	Morra De Sanctis
83020	14.656889	40.874241	Moschiano
83027	14.636574	40.944074	Mugnano del Cardinale
83051	15.084865	40.887283	Nusco
83051	15.038130	40.898444	Ponteromito
83014	14.744556	40.940481	Ospedaletto d'Alpinolo
83020	14.605698	40.896278	Pago del Vallo di Lauro
83050	14.883811	40.931478	Parolise
83052	15.032981	40.974389	Paternopoli
83010	14.798313	41.032224	Petruro Irpino
83030	14.895358	41.037775	Dentecane
83030	14.886407	41.042500	Pietradefusi
83030	14.864222	41.046259	Sant'Angelo a Cancelli
83030	14.890167	41.038611	Sant'Elena Irpina
83015	14.736741	41.012981	Ciardelli inferiore
83015	14.729852	40.993463	Pietrastornina
83030	14.838865	40.988676	Prata di Principato Ultra
83039	14.853607	40.988158	Pratola Serra
83039	14.873928	40.989909	San Michele di Pratola
83039	14.880040	41.021454	Serra
83020	14.640701	40.949825	Quadrelle
83020	14.648444	40.864389	Quindici
83016	14.712837	41.033712	Cassano caudino
83016	14.715873	41.017946	Roccabascerana
83016	14.718759	41.044852	Squillani
83016	14.697281	41.056186	Tufara Valle
83050	15.166111	40.951426	Rocca San Felice
83017	14.627225	41.014648	Ferrari di Cervinara
83017	14.595944	41.032519	Rotondi
83050	14.887654	40.921426	Salza Irpina
83050	14.973778	40.959241	San Mango sul Calore
83018	14.665481	41.026741	San Martino Valle Caudina
83020	14.855648	40.876741	San Michele di Serino
83050	15.200000	41.059537	San Nicola Baronia
83050	14.871483	40.928478	San Potito Ultra
83050	15.201407	41.072370	San Sossio Baronia
83020	14.876889	40.871407	Santa Lucia di Serino
83053	15.370648	40.845963	Sant'Andrea di Conza
83050	14.993907	41.007667	Sant'Angelo all'Esca
83010	14.740315	40.976407	Sant'Angelo a Scala
83054	15.178351	40.928756	Sant'Angelo dei Lombardi
83054	15.089272	40.946933	San Vito
83030	14.846350	41.024702	Santa Paolina
83050	14.867868	40.894301	Santo Stefano del Sole
83030	15.180860	41.227930	Savignano Irpino
83030	15.180009	41.227516	Savignano stazione
83050	15.299730	41.093511	Scampitella
83050	15.201889	40.740851	Senerchia
83028	14.841621	40.851688	Canale
83028	14.842627	40.850672	Ferrari stazione serino
83028	14.872303	40.855846	Sala
83028	14.886734	40.853602	San Biagio
83028	14.886713	40.859510	San sossio di Serino
83028	14.873130	40.855963	Serino
83020	14.631111	40.951111	Sirignano
83029	14.823013	40.836187	Sant'Agata Irpina
83029	14.839930	40.839689	Sant'Andrea Apostolo
83029	14.848463	40.830732	Solofra
83050	14.886383	40.917287	Sorbo Serpico
83020	14.606278	40.953611	Sperone
83055	15.111278	41.021278	Sturno
83010	14.774241	40.946426	Starze
83010	14.746259	40.950333	Summonte
83020	14.635752	40.883459	Taurano
83030	14.959537	41.009870	Taurasi
83056	15.254222	40.853926	Teora
83057	15.115944	40.940796	Torella dei Lombardi
83030	14.909748	41.023562	Torre le Nocelle
83010	14.812815	41.034346	Torrioni
83058	15.232056	41.062352	Molini
83058	15.234394	41.049546	Trevico
83010	14.819398	41.013052	Tufo
83059	15.253148	41.033403	Vallata
83050	15.253122	41.064307	Vallesaccarda
83030	14.912815	41.048296	Campanarello
83030	14.923148	41.075315	Castello del Lago
83030	14.912815	41.048296	Venticano
83050	15.090944	40.970481	Villamaina
83030	15.158407	41.114449	Villanova del Battista
83050	14.917249	40.879543	Volturara Irpina
83030	15.203218	41.124236	Zungoli
82011	14.555621	41.059580	Airola
82031	14.464870	41.204241	Amorosi
82021	14.932056	41.121278	Apice
82021	14.913907	41.120944	Apice nuovo
82030	14.706259	41.095167	Apollosa
82011	14.551094	41.038380	Arpaia
82010	14.745333	41.032352	Arpaise
82010	14.749337	41.018890	Terranova
82020	14.973759	41.394870	Baselice
82100	14.781174	41.130448	Benevento
82013	14.619852	41.076259	Bonea
82010	14.572370	41.077815	Bucciano
82020	14.979622	41.223463	Buonalbergo
82018	14.866895	41.073215	Calvi
82018	14.891163	41.094424	Cubante
82020	14.733285	41.287576	Campolattaro
82030	14.646594	41.132131	Campoli del Monte Taburno
82027	14.694862	41.259535	Casalduni
82022	15.084556	41.299704	Castelfranco in Miscano
82024	14.808907	41.402833	Castelpagano
82030	14.701259	41.140944	Castelpoto
82037	14.547609	41.234879	Castelvenere
82023	14.940134	41.442377	Castelvetere in Val Fortore
82030	14.645000	41.152519	Cacciano
82030	14.645000	41.152519	Cautano
82010	14.745355	41.058618	Beltiglio
82010	14.761407	41.047056	Ceppaloni
82010	14.719241	41.060963	Ripabianca
82010	14.741751	41.044135	San giovanni di Ceppaloni
82032	14.555857	41.283348	Cerreto Sannita
82020	14.809852	41.356111	Circello
82024	14.834074	41.365315	Colle Sannita
82024	14.879704	41.411741	Decorata
82033	14.527056	41.311741	Civitella Licinio
82033	14.508771	41.338975	Cusano Mutri
82030	14.453463	41.133296	Dugenta
82015	14.451574	41.064074	Durazzano
82030	14.479358	41.278670	Faicchio
82030	14.508295	41.267976	Massa
82030	14.669241	41.165648	Foglianise
82020	14.980783	41.353161	Foiano di Val Fortore
82011	14.534423	41.030808	Forchia
82020	14.785282	41.259651	Fragneto l'Abate
82020	14.764074	41.247981	Fragneto Monforte
82030	14.528759	41.157815	Frasso Telesino
82020	15.044704	41.280944	Ginestra degli Schiavoni
82034	14.597709	41.255517	Guardia Sanframondi
82030	14.408987	41.132160	Ave Gratia Plena
82030	14.364202	41.145432	Biancano
82030	14.428690	41.121166	Giardoni
82030	14.393926	41.141889	Limatola
82030	14.505333	41.163611	Melizzano
82030	14.478947	41.181660	Torello
82010	14.530355	41.067523	Luzzano
82010	14.544241	41.081111	Moiano
82020	14.908759	41.294537	Molinara
82025	15.010957	41.325795	Montefalcone di Val Fortore
82016	14.635827	41.081191	Cirignano
82016	14.641278	41.064139	Montesarchio
82016	14.627570	41.070080	Varoni
82026	14.751889	41.343148	Cuffiano
82026	14.666712	41.344083	Morcone
82020	14.881070	41.165169	Paduli
82020	14.872370	41.248907	Pago Veiano
82017	14.702815	41.010963	Pannarano
82011	14.577352	41.038130	Paolisi
82030	14.666271	41.195118	Paupisi
82020	14.813148	41.233778	Pesco Sannita
82030	14.550397	41.348874	Pietraroja
82020	14.848536	41.197840	Pietrelcina
82030	14.693540	41.213973	Ponte
82027	14.659698	41.285839	Giallonardo
82027	14.690740	41.287983	Pontelandolfo
82030	14.450612	41.224397	Puglianello
82020	14.823926	41.292667	Reino
82028	15.016221	41.411624	San Bartolomeo in Galdo
82018	14.853130	41.070630	San Giorgio del Sannio
82018	14.902037	40.999241	San giovanni di San giorgio del Sannio
82020	14.931259	41.274074	San Giorgio la Molara
82010	14.754891	41.094384	Cavuoti
82010	14.758463	41.075481	San Leucio del Sannio
82030	14.542667	41.277037	San Lorenzello
82034	14.625471	41.250885	San Lorenzo Maggiore
82034	14.635120	41.259726	San Lupo
82029	14.880630	41.311111	San Marco dei Cavoti
82010	14.836722	41.067370	San Martino Sannita
82018	14.858130	41.052833	San Nazzaro
82010	14.835333	41.092667	Bosco Perrotta
82010	14.835333	41.092667	Iannassi
82010	14.816111	41.057500	Monterocchetta
82010	14.792454	41.066171	Pagliara
82010	14.825963	41.075167	San Nicola Manfredi
82030	14.497476	41.234957	San Salvatore Telesino
82020	14.731327	41.386582	Santa Croce del Sannio
82019	14.440623	41.083619	Bagnoli
82019	14.498778	41.110315	Faggiano
82019	14.536486	41.123796	Laiano
82019	14.498463	41.090315	Sant'Agata de' Goti
82010	14.791407	41.055315	Bagnara
82010	14.807861	41.086221	Maccoli
82010	14.799739	41.074301	Montorsi
82010	14.799488	41.086823	Motta
82010	14.814211	41.084848	Pastene
82010	14.807204	41.090630	Perrillo
82010	14.812804	41.081055	Sant'Angelo a Cupolo
82021	14.939665	41.167449	Sant'Arcangelo Trimonte
82026	14.665481	41.375796	Sassinoro
82036	14.555038	41.193737	Solopaca
82037	14.528778	41.218463	Telese Terme
82030	14.635477	41.125974	Tocco Caudio
82030	14.680333	41.190481	Torrecuso
82038	14.642370	41.176259	Vitulano
81010	14.205944	41.391407	Ailano
81011	14.330584	41.328485	Alife
81011	14.385019	41.303296	Totari
81012	14.327115	41.251957	Alvignano
81012	14.338213	41.218680	Marciano Freddo
81021	14.493720	41.022027	Arienzo
81031	14.209166	40.972834	Aversa
81010	14.253148	41.303907	Baia e Latina
81010	14.272588	41.289629	Latina di Baia
81041	14.233296	41.161111	Bellona
81059	14.085227	41.305203	Caianello
81059	14.100855	41.307077	Montano
81059	14.082667	41.305000	Santa Lucia
81013	14.364271	41.178154	Caiazzo
81013	14.284110	41.088365	San Giovanni e Paolo
81042	14.129299	41.219345	Calvi Risorta
81042	14.119472	41.215234	Visciano
81050	14.212610	41.181215	Camigliano
81030	14.031198	41.075334	Arnone
81030	14.420995	40.995294	Cancello
81030	14.025703	41.074922	Cancello ed Arnone
81020	14.304556	41.045315	Capodrise
81014	14.146767	41.466629	Capriati a Volturno
81043	14.221111	41.100796	Capua
81043	14.221111	41.100796	Sant'Angelo in Formis
81032	14.220648	40.983907	Carinaro
81030	13.982590	41.186542	Carinola
81030	14.002204	41.222815	Casale di Carinola
81030	13.963778	41.197352	Casanova
81030	14.016723	41.172992	Nocelleto
81022	14.308778	41.075796	Casagiove
81033	14.125796	41.012519	Casal di Principe
81030	14.198907	41.002981	Casaluce
81030	14.136164	40.991790	Casapesenna
81020	14.288704	41.074981	Casapulla
81100	14.324344	41.094638	Briano
81100	14.332195	41.075415	Caserta
81100	14.366389	41.096667	Casertavecchia
81100	14.386785	41.094924	Casola
81100	14.351487	41.092772	Casolla
81100	14.362124	41.072682	Centurano
81100	14.324214	41.089315	Ercole
81100	14.350809	41.065825	Falciano
81100	14.344358	41.098504	Mezzano
81100	14.334868	41.094839	Puccianiello
81100	14.324078	41.090605	Sala di Caserta
81100	14.366152	41.064111	San Clemente di Caserta
81100	14.316046	41.098701	San Leucio
81100	14.364187	41.086665	Santa Barbara
81100	14.356280	41.091720	Staturano
81100	14.355989	41.065847	Tredici
81100	14.364727	41.084679	Tuoro
81100	14.305584	41.111005	Vaccheria
81010	14.453130	41.183759	Castel Campagnano
81010	14.433907	41.156259	Squille
81040	14.277962	41.192645	Castel di Sasso
81040	14.278778	41.193444	Cisterna
81016	14.377666	41.367930	Castello del Matese
81020	14.354780	41.122096	Annunziata
81020	14.355362	41.121847	Castel Morrone
81030	13.941738	41.033702	Castel Volturno
81030	13.987274	40.972936	Villaggio Coppola Pinetamare
81030	13.808097	41.193684	Baia Domizia
81030	13.855333	41.205963	Cellole
81023	14.422488	41.042299	Cervino
81023	14.443633	41.040298	Forchia di Cervino
81023	14.441574	41.026741	Messercola
81030	14.231111	40.965481	Cesa
81010	14.158909	41.450739	Ciorlano
81010	14.095336	41.443302	Torcino
81044	14.000656	41.349539	Cave
81044	13.990814	41.331792	Conca della Campania
81044	14.001760	41.321667	Orchi
81040	14.274852	41.073907	Curti
81010	14.303608	41.275938	Dragoni
81040	14.303608	41.275938	Dragoni
81040	14.301278	41.243611	Maiorano di Monte
81010	14.314002	41.271291	San Giorgio
81030	13.949074	41.163759	Falciano del Massico
81014	14.184537	41.456574	Fontegreca
81040	14.238463	41.211111	Formicola
81050	14.029268	41.155207	Ciamprisco
81050	14.057373	41.185973	Francolise
81050	14.075482	41.203613	Montanaro
81050	14.038148	41.144537	Sant'Andrea del Pizzone
81030	14.180000	40.999241	Frignano
81010	14.225944	41.465648	Gallo Matese
81010	14.174183	41.491262	Vallelunga
81044	13.954819	41.352830	Galluccio
81044	14.366152	41.064111	San Clemente
81044	13.944679	41.324484	Sipicciano
81044	13.961722	41.354241	Vaglie
81042	14.196353	41.199496	Giano Vetusto
81042	14.194389	41.203759	Pozzillo
81010	14.424222	41.325944	Calvisi
81010	14.402563	41.313360	Carattano
81010	14.445000	41.301278	Gioia Sannitica
81046	14.058988	41.111123	Borgo Appio
81046	14.112204	41.112519	Brezza
81046	14.102802	41.090839	Grazzanise
81030	14.232056	40.981259	Gricignano di Aversa
81010	14.255153	41.453781	Letino
81040	14.290944	41.228926	Liberi
81030	14.185974	40.967294	Lusciano
81047	14.288991	41.062709	Caturano
81047	14.274704	41.064389	Macerata Campania
81024	14.422432	41.005777	Grotticella
81024	14.377833	41.041111	Maddaloni
81024	14.415963	41.029222	Montedecoro
81025	14.052418	40.927018	Cantone
81025	14.301895	41.033304	Marcianise
81035	14.045300	41.327898	Ameglio
81035	14.031125	41.300799	Campagnola
81035	14.045907	41.318257	Grottola
81035	14.047751	41.319055	Marzano Appio
81049	13.967519	41.383148	Caspoli
81049	13.986407	41.407056	Mignano Monte Lungo
81034	13.894556	41.115167	Mondragone
81030	14.268907	40.967500	Orta di Atella
81030	14.162815	40.960019	Parete
81050	14.138288	41.218426	Pantuliano
81050	14.199241	41.181889	Pastorano
81013	14.334704	41.168130	Piana di Monte Verna
81013	14.323229	41.187360	Villa Santa Croce
81016	14.370462	41.354890	Piedimonte d'Alife
81016	14.370462	41.354890	Piedimonte Matese
81016	14.381822	41.349929	Sepicciano
81051	14.187510	41.270105	Pietramelara
81040	14.174009	41.326923	Borgo Sant'Antonio Abate
81040	14.169806	41.327216	Pietravairano
81040	14.483335	41.012174	San Felice
81052	14.173296	41.191889	Pignataro Maggiore
81040	14.251543	41.194146	Pontelatone
81040	14.260777	41.224974	Treglia
81050	14.292214	41.051500	Musicile
81050	14.280308	41.057502	Portico di Caserta
81010	14.199904	41.427337	Prata Sannita
81010	14.178778	41.405630	Pratella
81050	14.078069	41.376158	Presenzano
81050	14.483335	41.012174	San Felice
81017	14.223121	41.357227	Quattroventi
81017	14.243778	41.371259	Raviscanina
81020	14.305019	41.056278	Recale
81053	14.152222	41.262123	Riardo
81040	13.899074	41.395630	Bivio Mortola
81040	13.933721	41.384762	Camino
81040	13.909074	41.390000	Cocuruzzo
81040	13.909074	41.390000	Rocca d'Evandro
81035	13.993388	41.272974	Filorsi
81035	13.961497	41.285131	Fontanafredda
81035	14.225991	41.465036	Gallo
81035	13.996311	41.284361	Garofali
81035	13.984074	41.289222	Roccamonfina
81051	14.222370	41.275167	Roccaromana
81051	14.242056	41.278926	Statigliano
81042	14.141832	41.217100	Petrulo
81042	14.157266	41.236929	Rocchetta e Croce
81042	14.152497	41.198120	Val d'Assano
81010	14.442421	41.200269	Alvignanello
81010	14.409658	41.210921	Ruviano
81036	14.132667	40.999852	San Cipriano d'Aversa
81027	14.419955	40.994208	Cancello di Ferrovia
81027	14.489315	41.007192	Cave di San Felice
81027	14.465944	40.981111	Polvica
81027	14.483335	41.012174	San Felice a Cancello
81027	14.441080	41.010370	San Marco Trotti
81010	14.372500	41.386259	San Gregorio Matese
81030	14.176722	40.991111	San Marcellino
81020	14.340358	41.037537	San Marco Evangelista
81020	14.332370	41.052815	San Nicola la Strada
81049	13.962519	41.447056	San Pietro Infine
81016	14.391995	41.340766	San Potito Sannitico
81054	14.280566	41.087828	San Prisco
81028	14.466426	41.026574	Santa Maria a Vico
81055	14.256627	41.079985	Santa Maria Capua Vetere
81050	14.129241	41.092833	Santa Maria la Fossa
81050	14.228574	41.074721	San Tammaro
81017	14.264180	41.360247	Sant'Angelo d'Alife
81030	14.252952	40.957576	Sant'Arpino
81037	13.924258	41.214063	Avezzano Sorbello
81037	13.912833	41.205019	Carano
81037	13.969870	41.233148	Cascano
81037	13.917535	41.283145	Corigliano
81037	13.906741	41.241722	Cupa
81037	13.875796	41.236259	Fasani
81037	13.936235	41.276201	Fontanaradina
81037	13.889556	41.264537	Lauro di Sessa Aurunca
81037	14.370462	41.354890	Piedimonte
81037	13.918444	41.311889	San Carlo
81037	13.867325	41.260420	San Castrese
81037	13.926379	41.294204	San Martino
81037	13.937981	41.228778	Sant'Agata
81037	13.915765	41.300148	Santa Maria Valongo
81037	13.933759	41.241889	Sessa Aurunca
81037	13.977411	41.255153	Valogno
81056	14.094704	41.187815	Sparanise
81030	14.256574	40.969074	Succivo
81057	14.023675	41.270604	Casafredda
81057	14.059852	41.278759	Casale di Teano
81057	14.039799	41.250834	Casamostra
81057	14.039000	41.258305	Casi
81057	14.013909	41.244955	Fontanelle
81057	14.042451	41.272486	Furnolo
81057	14.034074	41.233611	Pugliano
81057	14.005462	41.231305	San Giuliano
81057	14.277370	41.178778	San Marco
81057	14.067519	41.252352	Teano
81057	14.072815	41.279556	Versano
81030	14.208611	40.996741	Teverola
81044	14.035032	41.340298	Piccilli
81044	14.393679	41.308718	Tora
81044	14.023454	41.339235	Tora e Piccilli
81038	14.177204	40.976407	Trentola-Ducenta
81058	14.109704	41.315630	Marzanello
81058	14.132173	41.337824	Patenora
81058	14.132173	41.337824	Vairano
81058	14.132173	41.337824	Vairano Patenora
81059	14.132173	41.337824	Vairano Patenora
81059	14.132173	41.337824	Vairano Scalo
81010	14.257495	41.423950	Valle Agricola
81020	14.416574	41.080648	Valle di Maddaloni
81030	14.161741	41.001111	Villa di Briano
81039	14.055104	40.990438	Bonifica villa literno
81039	14.076612	41.013079	Villa Literno
81041	14.216643	41.163921	Vitulazio
80011	14.377204	40.951722	Acerra
80011	14.433130	40.980630	Pezzalunga
80021	14.307533	40.920456	Afragola
80051	14.539870	40.638759	Agerola
80051	14.539870	40.638759	Bomerano
80051	14.532908	40.831969	Pianillo
80051	14.564737	40.627908	San Lazzaro di Agerola
80071	14.221241	40.555992	Anacapri
80022	14.268152	40.915498	Arzano
80070	14.079796	40.801300	Bacoli
80070	14.066450	40.819151	Baia
80070	14.067267	40.796228	Cappella
80070	14.056078	40.847118	Cuma
80070	14.609537	40.971407	Fusaro
80070	14.066667	40.789340	Miliscola
80070	14.084886	40.786274	Miseno
80070	14.079796	40.801300	Torregaveta
80070	13.910462	40.715278	Barano d'Ischia
80070	13.910327	40.714803	Buonopane
80070	13.916667	40.716667	Testaccio d'Ischia
80041	14.475159	40.775423	Boscoreale
80041	14.529012	40.785261	Marchesa
80042	14.462981	40.775315	Boscotrecase
80031	14.424852	40.924222	Brusciano
80023	14.308095	40.958056	Caivano
80023	14.308095	40.958056	Pascarola
80012	14.186426	40.906574	Calvizzano
80030	14.529546	40.953300	Camposano
80073	14.242926	40.550910	Capri
80073	14.239347	40.556044	Marina Grande di Capri
80030	14.578784	40.875456	Carbonara di Nola
80024	14.287667	40.937981	Carditello
80024	14.298699	40.945589	Cardito
80013	14.350300	40.915635	Casalnuovo di Napoli
80013	14.365167	40.889704	Casarea
80013	14.354554	40.915511	Licignano di Napoli
80013	14.350940	40.901668	Tavernanova
80032	14.554241	40.932981	Casamarciano
80074	13.912981	40.747667	Casamicciola Terme
80025	14.247883	40.930781	Casandrino
80020	14.277500	40.900333	Casavatore
80020	14.204762	40.963894	Parco delle Acacie
80050	14.528611	40.697981	Casola di Napoli
80026	14.323444	40.892667	Arpino
80026	14.290075	40.905446	Casoria
80053	14.481674	40.696002	Castellammare di Stabia
80053	14.486739	40.729029	Ponte della Persica
80053	14.461316	40.690254	Quisisana
80053	14.461316	40.690254	Scanzano
80030	14.408435	40.915183	Castello di Cisterna
80040	14.354035	40.869260	Caravita
80040	14.358778	40.857667	Cercola
80033	14.537276	40.962268	Cicciano
80030	14.526426	40.941574	Cimitile
80030	14.547917	40.953564	Comiziano
80030	14.539909	40.943930	Gallo
80020	14.286153	40.954733	Crispano
80056	14.352857	40.806038	Ercolano
80056	14.352857	40.806038	Resina
80075	13.859207	40.737394	Forio
80075	13.867439	40.735921	Monterone
80075	13.872032	40.713402	Panza
80027	14.275019	40.940315	Frattamaggiore
80020	14.273778	40.956574	Frattaminore
80014	14.197446	40.928493	Giugliano in Campania
80014	14.036111	40.925944	Lago Patria
80014	14.031786	40.917404	Varcaturo
80054	14.527021	40.688772	Caprile
80054	14.513789	40.692510	Gragnano
80028	14.260796	40.937056	Grumo Nevano
80077	13.902799	40.727159	Ischia
80077	13.959570	40.731944	Ischia Ponte
80077	13.959570	40.731944	Ischia Porto
80077	13.943243	40.727741	Ischia San Michele
80077	13.926052	40.715946	Piedimonte d'Ischia
80077	13.916667	40.716667	Sant'Antuono d'Ischia
80076	13.891259	40.751741	Lacco Ameno
80050	14.551518	40.704830	Lettere
80050	14.543521	40.705284	Piazza roma
80050	14.544951	40.709381	San Nicola
80030	14.563375	40.903937	Liveri
80016	14.194782	40.898143	Marano di Napoli
80016	14.155944	40.900019	San Rocco
80016	15.170839	41.089675	Torre Piscitelli
80030	14.436722	40.930648	Mariglianella
80034	14.447517	40.936031	Casaferro
80034	14.531177	40.944482	Faibano
80034	14.452675	40.933483	Lausdomini
80034	14.454213	40.924187	Marigliano
80034	14.298734	40.881100	Selva
80040	14.376111	40.846574	Massa di Somma
80061	14.344968	40.610826	Massa Lubrense
80061	14.357035	40.598625	Monticchio di Massa Lubrense
80061	14.351111	40.586111	Nerano
80061	14.374190	40.605868	Sant'Agata sui Due Golfi
80061	14.340333	40.589556	Termini
80017	14.230944	40.921574	Melito di Napoli
80062	14.419241	40.640333	Meta
80070	14.052833	40.802056	Monte di Procida
80018	14.206111	40.912352	Mugnano di Napoli
80131	14.234884	40.862763	Arenella
80147	14.324796	40.838733	Barra
80122	13.875073	40.749549	Chiaia
80145	14.250717	40.888583	Miano
80121	14.234680	40.835220	Napoli
80122	14.223680	40.830109	Napoli
80123	14.214240	40.827648	Napoli
80124	14.185320	40.814968	Napoli
80125	14.193670	40.824982	Napoli
80126	14.200760	40.841339	Napoli
80127	14.226260	40.840858	Napoli
80128	14.225020	40.852718	Napoli
80129	14.234840	40.848228	Napoli
80131	14.208490	40.861580	Napoli
80132	14.245290	40.834042	Napoli
80133	14.260420	40.840969	Napoli
80134	14.250120	40.845871	Napoli
80135	14.245320	40.849548	Napoli
80136	14.241040	40.861118	Napoli
80137	14.259380	40.861488	Napoli
80138	14.257580	40.850010	Napoli
80139	14.262600	40.855598	Napoli
80141	14.271490	40.862808	Napoli
80142	14.277680	40.847401	Napoli
80143	14.284770	40.861259	Napoli
80144	14.287300	40.891979	Napoli
80145	14.234540	40.886829	Napoli
80146	14.292580	40.843361	Napoli
80147	14.324960	40.851028	Napoli
80126	14.170487	40.858196	Pianura
80145	14.251636	40.840097	Piscinola
80145	14.236089	40.902173	Scampia
80144	14.261383	40.892233	Secondigliano
80126	14.191189	40.847669	Soccavo
80035	14.530167	40.883130	Cinquevie
80035	14.528564	40.925877	Nola
80035	14.502342	40.882312	Piazzolla
80035	14.530481	40.900019	Pollastri
80035	14.465944	40.981111	Polvica
80044	14.482945	40.849991	Ottaviano
80044	14.496168	40.851658	San Gennarello
80036	14.408435	40.915183	Castello
80036	14.549704	40.865944	Palma Campania
80036	14.569222	40.875333	Vico
80063	14.407012	40.636589	Piano di Sorrento
80050	14.524852	40.674704	Franche
80050	14.554912	40.975923	Piazza
80050	14.510796	40.674704	Pimonte
80050	14.511065	40.674230	Tralia
80040	14.540813	40.791976	Flocco
80040	14.540019	40.804241	Poggiomarino
80040	14.366407	40.878463	Musci
80040	14.382445	40.856354	Pollena Trocchia
80038	14.387204	40.908907	Pomigliano d'Arco
80045	14.516407	40.737037	Mariconda
80045	14.504944	40.735598	Messigno
80045	14.500739	40.749182	Pompei
80045	14.477775	40.752059	Pompei Scavi
80055	14.338406	40.819696	Bellavista
80055	14.339019	40.814051	Portici
80078	14.071971	40.845473	Arco felice
80078	14.254240	40.881080	Cappuccini
80078	14.066667	40.833333	Lago averno
80078	14.044074	40.876259	Lido di Licola
80078	14.121622	40.823745	Lucrino
80078	14.121622	40.823745	Monterusciello
80078	14.121622	40.823745	Pozzuoli
80079	14.023405	40.761750	Procida
80019	14.153121	40.918505	Qualiano
80010	14.140315	40.877815	Quarto
80030	14.545836	40.976944	Gargani
80030	14.560796	40.970481	Roccarainola
80040	14.525944	40.860019	San Gennaro Vesuviano
80046	14.334193	40.829170	San Giorgio a Cremano
80047	14.504087	40.823809	Casilli
80047	14.503294	40.836728	San Giuseppe Vesuviano
80047	14.495894	40.826039	Santa Maria la Scala
80030	14.547667	40.915963	San Paolo Bel Sito
80040	14.368611	40.845648	San Sebastiano al Vesuvio
80065	14.413996	40.615072	Colli di Fontanelle
80065	14.398148	40.631111	Sant'Agnello
80050	14.512121	40.720577	Santa Maria la Carita
80048	14.388318	40.869413	Madonna dell'Arco
80048	14.395208	40.886054	Ponte di Ferro
80048	14.405796	40.867981	Sant'Anastasia
80048	14.409389	40.892037	Starza Vecchia
80029	14.236207	40.942924	Sant'Antimo
80057	14.542935	40.722805	Sant'Antonio Abate
80030	14.479816	40.925923	San Vitaliano
80039	14.502342	40.882312	Piazzolla di Saviano
80039	14.509165	40.909172	Saviano
80030	14.486741	40.917037	Scisciano
80030	14.471722	40.892056	Spartimento
80070	13.896780	40.718404	Fontana
80070	14.093962	40.855555	Sant'Angelo
80070	13.892552	40.711163	Serrara
80070	13.899286	40.719565	Serrara Fontana
80070	13.885686	40.702266	Succhivo
80049	14.438244	40.871767	Somma Vesuviana
80067	14.378421	40.608692	Capo di Sorrento
80067	14.366278	40.619852	Priora
80067	14.375738	40.626321	Sorrento
80040	14.577519	40.817056	Striano
80040	14.500848	40.792048	Boccia al mauro
80040	14.502681	40.808218	Terzigno
80058	14.465648	40.750796	Torre Annunziata
80059	14.418356	40.765017	Leopardi
80059	14.402937	40.766709	Santa Maria la Bruna
80059	14.368029	40.787219	Torre del Greco
80040	14.438778	40.770481	Trecase
80030	14.573444	40.949241	Schiava
80030	14.566889	40.955167	Tufino
80066	14.630720	41.058464	Fornacella
80060	14.448605	40.662768	Massaquano
80060	14.466010	40.652860	Moiano
80066	14.410481	40.655481	Montechiaro
80066	14.420398	40.656379	Seiano
80060	14.462830	40.650280	Vico Equense
80066	14.420680	40.653210	Vico Equense
80069	14.429670	40.663052	Vico Equense
80060	14.482054	40.667081	Villaggio Monte faito
80010	14.138130	40.910944	Scalzapecora
80010	9.154540	45.452599	Torretta
80010	14.190796	40.922667	Villaricca
80030	14.581299	40.925478	Visciano
80040	14.343926	40.879556	Volla
84042	15.057815	40.738759	Acerno
84043	14.989517	40.350583	Agropoli
84043	15.004938	40.351395	Agropoli stazione
84044	15.117204	40.480019	Albanella
84044	15.067370	40.505019	Matinella
84040	15.424411	40.175727	Alfano
84045	15.131250	40.529762	Altavilla Silentina
84045	15.062833	40.534704	Borgo carillia
84045	15.104222	40.529852	Cerrelli
84011	14.602572	40.634362	Amalfi
84011	14.592519	40.630963	Lone
84011	14.802944	40.662825	Pastena
84011	14.592468	40.637489	Pogerola
84012	14.571741	40.734474	Angri
84020	15.254870	40.445019	Aquara
84046	15.186741	40.142667	Ascea
84046	15.236938	40.149326	Catona
84046	15.247701	40.157451	Mandia
84046	15.170313	40.141823	Marina di Ascea
84046	15.217346	40.156743	Terradura
84030	15.556088	40.454251	Atena Lucana
84030	15.543068	40.457353	Atena lucana Scalo
84030	15.541741	40.457037	Taverne
84010	14.608906	40.636063	Atrani
84031	15.425603	40.562309	Auletta
84081	14.772474	40.727295	Acquamela
84081	14.776655	40.729719	Antessano
84081	14.771722	40.748759	Baronissi
84081	14.791613	40.743130	Caprecano
84081	14.796396	40.736117	Fusara
84081	14.765444	40.738282	Saragnano
84081	14.775467	40.740784	Sava
84091	14.983035	40.608772	Battipaglia
84091	14.961329	40.616810	Belvedere di Battipaglia
84091	14.959688	40.577783	Santa Lucia di Battipaglia
84091	14.711111	40.735963	Sant'Anna
84092	14.947833	40.620963	Bellizzi
84092	15.297275	40.641493	Bivio
84020	15.312450	40.422567	Bellosguardo
84082	14.706426	40.824537	Bracigliano
84082	15.232479	40.558194	Manzi
84082	14.716715	40.814925	San Nazario
84021	15.379046	40.633907	Buccino
84021	15.374323	40.601396	Buccino stazione
84021	15.412370	40.598759	Tufariello
84032	15.620963	40.272352	Buonabitacolo
84030	15.494222	40.568926	Caggiano
84080	14.828926	40.776259	Calvanico
84040	15.377390	40.065449	Camerota
84050	15.311600	40.168549	Camerota
84059	15.372480	40.003540	Camerota
84050	15.386555	40.019749	Lentiscosa
84050	15.361663	40.057285	Licusati
84059	15.370591	39.999669	Marina di Camerota
84020	15.106439	40.663339	Campagna
84022	15.106439	40.663339	Campagna
84022	15.150348	40.651436	Puglietta
84020	15.107500	40.638907	Quadrivio
84022	15.154870	40.642352	Serradarce
84040	15.293296	40.306407	Campora
84040	15.293131	40.244585	Cannalonga
84047	15.010481	40.438926	Borgo Nuovo
84047	15.010481	40.438926	Cafasso
84047	15.081722	40.425481	Capaccio
84047	15.081722	40.425481	Capaccio Scalo
84047	14.989727	40.474091	Gromola
84047	14.977056	40.447833	Laura
84047	15.001637	40.410832	Licinella
84047	15.005081	40.418667	Paestum
84047	15.014241	40.492352	Ponte barizzo
84047	15.024537	40.453296	Rettifilo
84047	15.013296	40.412056	Santa Venere
84047	14.995434	40.410654	Torre di Paestum
84047	15.024537	40.453296	Vannullo
84047	15.071591	40.457708	Vuccolo di Maiorano
84030	15.688926	40.215315	Casalbuono
84030	15.624389	40.148926	Battaglia
84030	15.619537	40.151722	Casaletto Spartano
84040	15.119074	40.210333	Acquavella
84040	15.110220	40.189024	Casal Velino
84040	15.125459	40.177696	Marina di Casal velino
84040	15.113463	40.250796	Ponte
84030	15.546798	40.173330	Caselle in Pittari
84020	15.232979	40.494467	Castelcivita
84020	15.162667	40.443926	Serra di Castelcivita
84048	14.957446	40.282583	Castellabate
84048	14.943005	40.233707	Ogliastro Marina
84048	15.504222	40.383926	San Marco
84048	15.192833	40.162370	Santa Maria
84040	15.177981	40.219241	Castelnuovo Cilento
84040	15.164376	40.220813	Castelnuovo Vallo stazione
84040	15.160167	40.200796	Velina
84020	15.319704	40.821741	Castelnuovo di Conza
84020	13.008510	37.759657	Centro urbano
84083	15.341438	40.580669	Castelluccio
84083	14.699870	40.784870	Castel San Giorgio
84083	14.690651	40.762597	Fimiani
84083	14.679222	40.776278	Lanzara
84049	15.230544	40.416673	Castel San Lorenzo
84090	14.848585	40.725035	Castiglione del Genovesi
84013	14.702881	40.712004	Alessia
84013	14.722891	40.685228	Arcara
84013	14.691900	40.682173	Badia di Cava de' Tirreni
84013	14.706574	40.702056	Cava de' Tirreni
84013	14.691397	40.682127	Corpo di Cava
84013	14.702881	40.712004	Dupino
84013	14.732409	40.685954	Marini
84013	14.692161	40.703156	Passiano
84013	14.713336	40.714585	Pregiato
84013	14.725214	40.706815	San Pietro di Cava
84013	14.701421	40.730801	Santa Lucia di Cava
84040	15.404241	40.095796	Celle di Bulgheria
84040	15.384870	40.094852	Poderia
84051	15.312815	40.067500	Centola
84051	15.324389	40.092519	Foria
84051	15.288130	40.035963	Palinuro
84051	14.809273	40.685559	San Nicola
84051	15.347519	40.090796	San Severino
84052	15.257056	40.195315	Ceraso
84052	15.275315	40.201407	Massascusa
84052	15.295963	40.151111	San Biase
84052	15.275954	40.201641	San sumino
84052	15.257519	40.180000	Santa Barbara
84010	14.700572	40.647666	Cetara
84053	15.130482	40.343549	Cicerale
84053	15.114643	40.346182	Monte cicerale
84020	15.290637	40.726081	Colliano
84010	14.570232	40.617878	Conca dei Marini
84020	15.204601	40.509341	Controne
84024	15.253659	40.683789	Bagni di Contursi
84024	15.237357	40.650083	Contursi Terme
84010	14.593807	40.719886	Corbara
84020	15.380481	40.438296	Corleto Monforte
84050	15.308079	40.160957	Cuccaro Vetere
84025	15.002300	40.525727	Bivio Santa cecilia
84025	14.985680	40.570577	Corno d'Oro
84025	15.058759	40.615333	Eboli
84025	15.002300	40.525727	Santa Cecilia di Eboli
84055	15.240759	40.374580	Felitto
84084	14.778220	40.758251	Bolano
84084	14.797945	40.772959	Fisciano
84084	14.816741	40.756111	Gaiano
84084	14.785007	40.763432	Lancusi
84084	14.791101	40.759692	Penta
84084	14.783076	40.784148	Pizzolano
84084	14.808576	40.774304	Settefichi
84084	14.788200	40.788354	Villa
84010	14.553160	40.618831	Furore
84010	14.550015	40.621754	San Michele
84050	15.322738	40.151299	Futani
84050	15.300733	40.149746	Sorvaro
84090	14.905648	40.719537	Capitignano
84090	14.891699	40.727929	Giffoni Sei Casali
84090	14.890912	40.730107	Prepezzano
84090	14.902588	40.744774	Sieti
84095	14.920019	40.749968	Curti
84095	14.943729	40.719035	Giffoni Valle Piana
84095	14.944492	40.719133	Mercato
84095	14.930571	40.692490	Ornito
84095	15.451889	40.051426	San Giovanni
84095	15.284074	40.221111	Santa Caterina
84056	15.244294	40.271122	Cardile
84056	15.216904	40.288662	Gioi
84050	15.108148	40.395796	Giungano
84050	15.567037	40.079074	Capitello
84050	15.558123	40.088031	Ispani
84050	15.047361	40.299422	Laureana Cilento
84050	15.020572	40.303688	Matonti
84057	15.337645	40.337522	Laurino
84057	15.336301	40.368743	Villa Littorio
84050	15.404950	40.168384	Laurito
84020	15.310648	40.787037	Laviano
84050	15.068206	40.288744	Lustra
84050	15.218463	40.353907	Capizzo
84050	15.256515	40.338053	Magliano Nuovo
84050	15.237148	40.347901	Magliano Vetere
84010	14.694647	40.638234	Erchie
84010	14.640415	40.648443	Maiori
84085	14.725711	40.768755	Acquarola
84085	14.726979	40.792020	Carifi
84085	14.730396	40.807593	Ciorani
84085	14.745691	40.774875	Curteri
84085	14.757815	40.782370	Mercato San Severino
84085	14.852681	40.695577	Monticelli
84085	14.759706	40.794883	Pandola
84085	14.709654	40.771678	Piazza del galdo
84085	15.342352	40.457815	Sant'Angelo
84085	14.817352	40.668296	Sant'eustachio
84085	14.751426	40.762037	Spiano
84085	14.695555	40.791126	Torello
84010	14.626102	40.650741	Minori
84060	15.268815	40.246374	Moio della Civitella
84060	15.271644	40.244578	Pellare
84060	15.357942	40.144486	Abatemarco
84060	15.328108	40.139597	Massicelle
84060	15.366367	40.161526	Montano Antilia
84060	14.997667	40.217833	Agnone Cilento
84040	14.965673	40.239558	Case del conte
84060	14.999654	40.243506	Fornelli
84040	14.984354	40.233648	Montecorice
84060	14.984354	40.233648	Montecorice
84060	14.984354	40.233648	Ortodonico
