CUL	LONGITUDE	LATITUDE	NAME	
MK1000	21.433300	42.000000	Skopje	
MK1010	21.433300	42.000000	Skopje	
MK1011	21.418100	42.109700	Kuceviste	
MK1020	21.521700	41.936700	Skopje-Karpos 3	
MK1040	21.433300	42.000000	Skopje	
MK1041	21.582200	41.996100	Ilinden	
MK1042	21.649400	41.978100	Miladinovci	
MK1043	21.615000	41.938900	Petrovec	
MK1044	21.683100	41.894400	Katlanovo	
MK1045	21.561900	42.026400	Aracinovo	
MK1047	21.556900	41.967200	Jurumleri	
MK1050	21.521700	41.936700	Skopje-Dracevo	
MK1053	21.586900	41.886700	Zelenikovo	
MK1054	21.189800	41.316100	Rakotnici	
MK1060	21.319300	42.060900	Skopje-Gjorce Petrov	
MK1062	21.210600	42.085000	Radusa	
MK1063	21.236900	41.968300	Bukovik	
MK1200	20.971400	42.010600	Tetovo	
MK1201	20.957800	41.992500	Mala Recica	
MK1203	21.108900	42.106700	Nerashte	
MK1206	21.176100	42.164400	Jazince	
MK1211	21.077800	42.103300	Dobroste	
MK1212	21.000000	42.032800	Dzepciste	
MK1213	20.947800	41.915300	Zerovjane	
MK1214	20.910600	41.910800	Pirok	
MK1215	21.123600	42.073600	Jegunovce	
MK1216	20.980800	41.967200	Brvenica	
MK1218	21.130300	41.967800	Grupcin	
MK1219	20.945800	41.990300	Golema Recica	
MK1220	20.913600	41.923600	Bogovinje	
MK1221	20.926700	41.944400	Kamenjane	
MK1224	21.052500	42.074400	Tearce	
MK1225	21.116900	42.143300	Vratnica	
MK1226	21.064200	41.980300	Zelino	
MK1227	21.013300	41.931700	Celopek	
MK1228	21.079700	42.024700	Shemshevo	
MK1230	20.908300	41.797200	Gostivar	
MK1231	20.839200	41.768600	Vrutok	
MK1234	20.884200	41.815900	Debreshe	
MK1235	22.090600	41.484600	Negotino-Gostivarsko	
MK1236	20.887500	41.865800	Dobri Dol	
MK1237	20.975800	41.838900	Cegrane	
MK1238	20.885300	41.833900	Vrapciste	
MK1239	20.960300	41.705800	Srbinovo	
MK1250	20.527500	41.525000	Debar	
MK1254	20.600000	41.610000	Rostusa	
MK1255	20.585800	41.674400	Zirovnica	
MK1256	20.755600	41.700600	Mavrovi Anovi	
MK1257	20.609400	41.565600	Skudrinje	
MK1258	20.544400	41.476700	Golem Papradnik	
MK1300	21.714400	42.132200	Kumanovo	
MK1302	21.910800	42.262500	Zeglane	
MK1303	21.828600	42.198100	Staro Negoricane	
MK1304	21.857200	42.116100	Klecovce	
MK1305	21.799700	42.062500	Orasec	
MK1306	21.597800	42.125600	Matejce	
MK1307	21.585300	42.156400	Lipkovo	
MK1308	21.708300	42.214700	Tabanovce	
MK1309	21.887800	42.023100	Gradiste	
MK1312	21.801700	42.170300	Mlado Nagoricane	
MK1314	21.906700	42.157200	Oblavce	
MK1315	21.587800	42.143900	Otlja	
MK1316	22.122800	42.181900	Rankovce	
MK1322	21.693100	42.094700	Romanovce	
MK1323	21.756100	42.039700	Pcinja	
MK1324	21.663100	42.206100	Vaksince	
MK1325	21.627800	42.173300	Slupcane	
MK1330	22.331900	42.201900	Kriva Palanka	
MK1332	22.187200	42.208300	Petralnica	
MK1333	22.253900	42.157800	Mozdivnjak	
MK1334	22.323900	42.277200	Dubrovnica	
MK1335	22.395800	42.225000	Zidilovo	
MK1360	22.181400	42.079200	Kratovo	
MK1361	22.032200	42.150600	Stracin	
MK1400	21.775600	41.715600	Veles	
MK1406	21.760000	41.748300	Basino Selo	
MK1407	21.820300	41.848900	Ivankovci	
MK1408	21.733600	41.685800	Gorno Orizari	
MK1413	21.662200	41.650600	Caska	
MK1414	21.697200	41.554700	Izvor	
MK1415	21.471700	41.593100	Bogomila	
MK1420	21.942800	41.577500	Gradsko	
MK1421	21.888600	41.506400	Sirkovo	
MK1422	21.949700	41.516100	Rosoman	
MK1423	21.890000	41.419400	Drenovo	
MK1424	21.924700	41.430000	Vozarci	
MK1426	22.027800	41.466400	Marena	
MK1427	22.024700	41.490000	Sopot	
MK1430	22.011900	41.433100	Kavadarci	
MK1434	21.978100	41.388100	Resava	
MK1437	22.077200	41.247200	Konopiste	
MK1440	22.089200	41.483900	Negotino	
MK1441	22.128300	41.518900	Pepeliste	
MK1442	22.248900	41.405000	Demir Kapija	
MK1443	22.095600	41.428300	Dolni Disan	
MK1480	22.502500	41.139200	Gevgelija	
MK1483	22.484700	41.183600	Negorci	
MK1484	22.575600	41.203100	Bogdanci	
MK1485	22.706100	41.220600	Nov Dojran	
MK1487	22.720800	41.187500	Star Dojran	
MK1488	22.577500	41.155600	Stojakovo	
MK1489	22.435000	41.307800	Miravci	
MK2000	22.195800	41.745800	Stip	
MK2207	22.237500	41.816700	Karbinci	
MK2208	21.905600	41.783900	Lozovo	
MK2210	22.178600	42.003100	Probishtip	
MK2212	22.236100	41.988600	Zletovo	
MK2220	21.942800	41.865000	Sveti Nikole	
MK2225	22.035600	41.835300	Erdzelija	
MK2227	21.994700	41.811900	Amzabegovo	
MK2300	22.412800	41.916400	Kocani	
MK2301	22.333900	41.883300	Oblesevo	
MK2302	22.446900	41.922800	Orizari	
MK2304	22.591900	42.020000	Makedonska Kamenica	
MK2305	22.444400	41.854200	Zrnovci	
MK2307	22.381400	41.888100	Gorni Podlog	
MK2310	22.509200	41.882800	Vinica	
MK2312	22.502500	41.929700	Istibanja	
MK2314	22.578100	41.837800	Blatec	
MK2315	22.808300	41.683300	Rusinovo	
MK2316	22.599400	41.897200	Dragobraste	
MK2320	22.769400	41.967200	Delcevo	
MK2325	22.816700	41.887500	Trabotiviste	
MK2326	22.890600	41.759400	Pehcevo	
MK2330	22.857800	41.703100	Berovo	
MK2331	22.792800	41.710000	Vladimirovo	
MK2332	22.775600	41.764200	Budinarci	
MK2333	22.289200	41.871400	Cesinovo	
MK2400	22.643300	41.437500	Strumica	
MK2410	22.665300	41.405300	Kuklis	
MK2411	22.641700	41.476100	Vasilevo	
MK2412	22.591400	41.520800	Vladevci / Radicevo sobiraliste	
MK2413	22.609400	41.357200	Kosturino	
MK2414	22.567500	41.476100	Veljusa	
MK2416	22.675300	41.525300	Dobrasinci	
MK2420	22.464700	41.638300	Radovis	
MK2423	22.542200	41.613900	Podares	
MK2424	22.385000	41.495800	Konce	
MK2430	22.726900	41.470600	Petralinci	
MK2431	22.727800	41.440600	Bosilovo	
MK2432	22.726700	41.415300	Murtino	
MK2433	22.773600	41.438300	Turnovo	
MK2434	22.509200	41.485800	Novo Selo	
MK2435	22.838600	41.375000	Mokrievo	
MK2436	21.521700	41.936700	Dracevo	
MK2460	22.561100	41.316900	Valandovo	
MK2461	22.640000	41.303300	Calakli	
MK2464	22.442800	41.343100	Udovo	
MK6000	20.801900	41.117200	Ohrid	
MK6245	21.001700	41.402800	Malo Crsko	
MK6250	20.963300	41.514400	Kicevo	
MK6253	20.938300	41.607200	Zajas	
MK6254	21.000000	41.577200	Oslomej	
MK6255	20.906900	41.446700	Brzdani	
MK6256	21.697200	41.554700	Izvor	
MK6257	20.935300	41.559200	Dlapkin Dol	
MK6258	21.026700	41.445300	Vranestica	
MK6259	21.028600	41.472500	Celopeci	
MK6260	21.764100	41.716000	Rastanski Pat	
MK6261	20.923300	41.484200	Drugovo	
MK6262	21.003600	41.537200	Strelci	
MK6306	20.883300	40.950000	Leskovec	
MK6322	20.801900	41.117200	Ohrid	
MK6330	20.676100	41.178100	Struga	
MK6333	20.623300	41.164200	Radolista	
MK6334	20.643900	41.240800	Velesta	
MK6335	20.593300	41.240600	Vevcani	
MK6336	20.596100	41.268600	Labunista	
MK6337	20.604700	41.349400	Lukovo	
MK6338	20.721800	41.257300	Delgozda	
MK6339	20.607200	41.232500	Oktisi	
MK6341	20.755000	41.206400	Trebenista	
MK6342	20.776700	41.238600	Meseista	
MK6344	20.830300	41.302800	Belcista	
MK6346	20.845000	41.405600	Slivovo	
MK6530	21.215300	41.513600	Makedonski Brod	
MK6533	21.210600	41.626900	Dolni Manastirec	
MK6535	21.144200	41.683600	Samokov	
MK6539	21.092800	41.464700	Dvorci	
MK7000	21.340300	41.031100	Bitola	
MK7202	21.111100	41.155000	Smilevo	
MK7204	21.379400	41.050300	Dolno Orizari	
MK7205	21.263900	41.030300	Dihovo	
MK7211	21.456100	41.041900	Novaci	
MK7212	21.484200	41.116400	Dedebalci	
MK7213	21.609400	41.118600	Makovo	
MK7214	21.733900	41.089700	Staravina	
MK7215	21.482500	41.168600	Dobrusevo	
MK7216	21.378600	41.108300	Mogila	
MK7221	21.366700	40.983300	Bistrica	
MK7223	21.366700	40.933300	Porodin	
MK7224	21.458500	40.924200	Keremenica	
MK7225	21.566700	40.933300	Bac	
MK7240	21.203100	41.221700	Demir Hisar	
MK7241	21.325600	41.095600	Kukurecani	
MK7242	21.253900	41.159400	Lopatica	
MK7244	21.120800	41.287800	Zvan	
MK7245	21.358900	41.206400	Ivanjevci	
MK7310	21.012200	41.088900	Resen	
MK7313	21.178300	41.056100	Capari	
MK7314	21.147200	41.065300	Kazani	
MK7315	21.007200	41.043100	Carev Dvor	
MK7316	21.051100	40.986400	Asamati	
MK7317	21.108600	40.939400	Krani	
MK7318	21.140800	40.894200	Ljubojno	
MK7319	20.916700	40.983300	Otesevo	
MK7320	21.011400	41.110300	Jankovec	
MK7500	21.554400	41.346400	Prilep	
MK7504	21.454700	41.425300	Dolneni	
MK7505	21.406900	41.501700	Kostinci	
MK7506	21.692200	41.257500	Dunje	
MK7507	21.315800	41.442200	Lazani	
MK7508	21.826700	41.180800	Vitoliste	
MK7509	21.440300	41.343100	Golemo Konjari	
MK7512	21.431400	41.228600	Topolcani	
MK7514	21.503300	41.210300	Kanatlarci	
MK7524	21.333100	41.336100	Krivogastani	
MK7525	21.339400	41.283600	Vodani	
MK7537	21.315300	41.479700	Debreste	
MK7550	21.248900	41.368900	Krusevo	
				
				
				
				
				
				
				
				
				
				
				
				
				
				
				
				
				
				
				
				
				
				
				
				
				
				
				
				
				
				
				
				
				
				
				
				
				
				
				
				
				
				
				
				
				
				
				
				
				
				
				
				
				
				
				
				
				
				
				
				
				
				
				
				
				
				
				
				
				
				
				
				
				
				
				
				
				
				
				
				
				
				
				
				
				
				
				
				
				
				
				
				
				
				
				
				
				
				
				
				
				
				
				
				
				
				
				
				
				
				
				
				
				
				
				
				
				
				
				
				
				
				
				
				
				
				
				
				
				
				
				
				
				
				
				
				
				
				
				
				
				
				
				
				
				
				
				
				
				
				
				
				
				
				
				
				
				
				
				
				
				
				
				
				
				
				
				
				
				
				
				
				
				
				
				
				
				
				
				
				
				
				
				
				
				
				
				
				
				
				
				
				
				
				
				
				
				
				
				
				
				
				
				
				
				
				
				
				
				
				
				
				
				
				
				
				
				
				
				
				
				
				
				
				
				
				
				
				
				
				
				
				
				
				
				
				
				
				
				
				
				
				
				
				
				
				
				
				
				
				
				
				
				
				
				
				
				
				
				
				
				
				
				
				
				
				
				
				
				
				
				
				
				
				
				
				
				
				
				
				
				
				
				
				
				
				
				
				
				
				
				
				
				
				
				
				
				
				
				
				
				
				
				
				
				
				
				
				
				
				
				
				
				
				
				
				
				
				
				
				
				
				
				
				
				
				
				
				
				
				
				
				
				
				
				
				
				
				
				
				
				
				
				
				
				
				
				
				
				
				
				
				
				
				
				
				
				
				
				
				
				
				
				
				
				
				
				
				
				
				
				
				
				
				
				
				
				
				
				
				
				
				
				
				
				
				
				
				
				
				
				
				
				
				
				
				
				
				
				
				
				
				
				
				
				
				
				
				
				
				
				
				
				
				
				
				
				
				
				
				
				
				
				
				
				
				
				
				
				
				
				
				
				
				
				
				
				
				
				
				
				
				
				
				
				
				
				
				
				
				
				
				
				
				
				
				
				
				
				
				
				
				
				
				
				
				
				
				
				
				
				
				
				
				
				
				
				
				
				
				
				
				
				
				
				
				
				
				
				
				
				
				
				
				
				
				
				
				
				
				
				
				
				
				
				
				
				
				
				
				
				
				
				
				
				
				
				
				
				
				
				
				
				
				
				
				
				
				
				
				
				
				
				
				
				
				
				
				
				
				
				
				
				
				
				
				
				
				
				
				
				
				
				
				
				
				
				
				
				
				
				
				
				
				
				
				
				
				
				
				
				
				
				
				
				
				
				
				
				
				
				
				
				
				
				
				
				
				
				
				
				
				
				
				
				
				
				
				
				
				
				
				
				
				
				
				
				
				
				
				
				
				
				
				
				
				
				
				
				
				
				
				
				
				
				
				
				
				
				
				
				
				
				
				
				
				
				
				
				
				
				
				
				
				
				
				
				
				
				
				
				
				
				
				
				
				
				
				
				
				
				
				
				
				
				
				
				
				
				
				
				
				
				
				
				
				
				
				
				
				
				
				
				
				
				
				
				
				
				
				
				
				
				
				
				
				
				
				
				
				
				
				
				
				
				
				
				
				
				
				
				
				
				
				
				
				
				
				
				
				
				
				
				
				
				
				
				
				
				
				
				
				
				
				
				
				
				
				
				
				
				
				
				
				
				
				
				
				
				
				
				
				
				
				
				
				
				
				
				
				
				
				
				
				
				
				
				
				
				
				
				
				
				
				
				
				
				
				
				
				
				
				
				
				
				
				
				
				
				
				
				
				
				
				
				
				
				
				
				
				
				
				
				
				
				
				
				
				
				
				
				
				
				
				
				
				
				
				
				
				
				
				
				
				
				
				
				
				
				
				
				
				
				
				
				
				
				
				
				
				
				
				
				
				
				
				
				
				
				
				
				
				
				
				
				
				
				
				
				
				
				
				
				
				
				
				
				
				
				
				
				
				
				
				
				
				
				
				
				
				
				
				
				
				
				
				
				
				
				
				
				
				
				
				
				
				
				
				
				
				
				
				
				
				
				
				
				
				
				
				
				
				
				
				
				
				
				
				
				
				
				
				
				
				
				
				
				
				
				
				
				
				
				
				
				
				
				
				
				
				
				
				
				
				
				
				
				
				
				
				
				
				
				
				
				
				
				
				
				
				
				
				
				
				
				
				
				
				
				
				
				
				
				
				
				
				
				
				
				
				
				
				
				
				
				
				
				
				
				
				
				
				
				
				
				
				
				
				
				
				
				
				
				
				
				
				
				
				
				
				
				
				
				
				
				
				
				
				
				
				
				
				
				
				
				
				
				
				
				
				
				
				
				
				
				
				
				
				
				
				
				
				
				
				
				
				
				
				
				
				
				
				
				
				
				
				
				
				
				
				
				
				
				
				
				
				
				
				
				
				
				
				
				
				
				
				
				
				
				
				
				
				
				
				
				
				
				
				
				
				
				
				
				
				
				
				
				
				
				
				
				
				
				
				
				
				
				
				
				
				
				
				
				
				
				
				
				
				
				
				
				
				
				
				
				
				
				
				
				
				
				
				
				
				
				
				
				
				
				
				
				
				
				
				
				
				
				
				
				
				
				
				
				
				
				
				
				
				
				
				
				
				
				
				
				
				
				
				
				
				
				
				
				
				
				
				
				
				
				
				
				
				
				
				
				
				
				
				
				
				
				
				
				
				
				
				
				
				
				
				
				
				
				
				
				
				
				
				
				
				
				
				
				
				
				
				
				
				
				
				
				
				
				
				
				
				
				
				
				
				
				
				
				
				
				
				
				
				
				
				
				
				
				
				
				
				
				
				
				
				
				
				
				
				
				
				
				
				
				
				
				
				
				
				
				
				
				
				
				
				
				
				
				
				
				
				
				
				
				
				
				
				
				
				
				
				
				
				
				
				
				
				
				
				
				
				
				
				
				
				
				
				
				
				
				
				
				
				
				
				
				
				
				
				
				
				
				
				
				
				
				
				
				
				
				
				
				
				
				
				
				
				
				
				
				
				
				
				
				
				
				
				
				
				
				
				
				
				
				
				
				
				
				
				
				
				
				
				
				
				
				
				
				
				
				
				
				
				
				
				
				
				
				
				
				
				
				
				
				
				
				
				
				
				
				
				
				
				
				
				
				
				
				
				
				
				
				
				
				
				
				
				
				
				
				
				
				
				
				
				
				
				
				
				
				
				
				
				
				
				
				
				
				
				
				
				
				
				
				
				
				
				
				
				
				
				
				
				
				
				
				
				
				
				
				
				
				
				
				
				
				
				
				
				
				
				
				
				
				
				
				
				
				
				
				
				
				
				
				
				
				
				
				
				
				
				
				
				
				
				
				
				
				
				
				
				
				
				
				
				
				
				
				
				
				
				
				
				
				
				
				
				
				
				
				
				
				
				
				
				
				
				
				
				
				
				
				
				
				
				
				
				
				
				
				
				
				
				
				
				
				
				
				
				
				
				
				
				
				
				
				
				
				
				
				
				
				
				
				
				
				
				
				
				
				
				
				
				
				
				
				
				
				
				
				
				
				
				
				
				
				
				
				
				
				
				
				
				
				
				
				
				
				
				
				
				
				
				
				
				
				
				
				
				
				
				
				
				
				
				
				
				
				
				
				
				
				
				
				
				
				
				
				
				
				
				
				
				
				
				
				
				
				
				
				
				
				
				
				
				
				
				
				
				
				
				
				
				
				
				
				
				
				
				
				
				
				
				
				
				
				
				
				
				
				
				
				
				
				
				
				
				
				
				
				
				
				
				
				
				
				
				
				
				
				
				
				
				
				
				
				
				
				
				
				
				
				
				
				
				
				
				
				
				
				
				
				
				
				
				
				
				
				
				
				
				
				
				
				
				
				
				
				
				
				
				
				
				
				
				
				
				
				
				
				
				
				
				
				
				
				
				
				
				
				
				
				
				
				
				
				
				
				
				
				
				
				
				
				
				
				
				
				
				
				
				
				
				
				
				
				
				
				
				
				
				
				
				
				
				
				
				
				
				
				
				
				
				
				
				
				
				
				
				
				
				
				
				
				
				
				
				
				
				
				
				
				
				
				
				
				
				
				
				
				
				
				
				
				
				
				
				
				
				
				
				
				
				
				
				
				
				
				
				
				
				
				
				
				
				
				
				
				
				
				
				
				
				
				
				
				
				
				
				
				
				
				
				
				
				
				
				
				
				
				
				
				
				
				
				
				
				
				
				
				
				
				
				
				
				
				
				
				
				
				
				
				
				
				
				
				
				
				
				
				
				
				
				
				
				
				
				
				
				
				
				
				
				
				
				
				
				
				
				
				
				
				
				
				
				
				
				
				
				
				
				
				
				
				
				
				
				
				
				
				
				
				
				
				
				
				
				
				
				
				
				
				
				
				
				
				
				
				
				
				
				
				
				
				
				
				
				
				
				
				
				
				
				
				
				
				
				
				
				
				
				
				
				
				
				
				
				
				
				
				
				
				
				
				
				
				
				
				
				
				
				
				
				
				
				
				
				
				
				
				
				
				
				
				
				
				
				
				
				
				
				
				
				
				
				
				
				
				
				
				
				
				
				
				
				
				
				
				
				
				
				
				
				
				
				
				
				
				
				
				
				
				
				
				
				
				
				
				
				
				
				
				
				
				
				
				
				
				
				
				
				
				
				
				
				
				
				
				
				
				
				
				
				
				
				
				
				
				
				
				
				
				
				
				
				
				
				
				
				
				
				
				
				
				
				
				
				
				
				
				
				
				
				
				
				
				
				
				
				
				
				
				
				
				
				
				
				
				
				
				
				
				
				
				
				
				
				
				
				
				
				
				
				
				
				
				
				
				
				
				
				
				
				
				
				
				
				
				
				
				
				
				
				
				
				
				
				
				
				
				
				
				
				
				
				
				
				
				
				
				
				
				
				
				
				
				
				
				
				
				
				
				
				
				
				
				
				
				
				
				
				
				
				
				
				
				
				
				
				
				
				
				
				
				
				
				
				
				
				
				
				
				
				
				
				
				
				
				
				
				
				
				
				
				
				
				
				
				
				
				
				
				
				
				
				
				
				
				
				
				
				
				
				
				
				
				
				
				
				
				
				
				
				
				
				
				
				
				
				
				
				
				
				
				
				
				
				
				
				
				
				
				
				
				
				
				
				
				
				
				
				
				
				
				
				
				
				
				
				
				
				
				
				
				
				
				
				
				
				
				
				
				
				
				
				
				
				
				
				
				
				
				
				
				
				
				
				
				
				
				
				
				
				
				
				
				
				
				
				
				
				
				
				
				
				
				
				
				
				
				
				
				
				
				
				
				
				
				
				
				
				
				
				
				
				
				
				
				
				
				
				
				
				
				
				
				
				
				
				
				
				
				
				
				
				
				
				
				
				
				
				
				
				
				
				
				
				
				
				
				
				
				
				
				
				
				
				
				
				
				
				
				
				
				
				
				
				
				
				
				
				
				
				
				
				
				
				
				
				
				
				
				
				
				
				
				
				
				
				
				
				
				
				
				
				
				
				
				
				
				
				
				
				
				
				
				
				
				
				
				
				
				
				
				
				
				
				
				
				
				
				
				
				
				
				
				
				
				
				
				
				
				
				
				
				
				
				
				
				
				
				
				
				
				
				
				
				
				
				
				
				
				
				
				
				
				
				
				
				
				
				
				
				
				
				
				
				
				
				
				
				
				
				
				
				
				
				
				
				
				
				
				
				
				
				
				
				
				
				
				
				
				
				
				
				
				
				
				
				
				
				
				
				
				
				
				
				
				
				
				
				
				
				
				
				
				
				
				
				
				
				
				
				
				
				
				
				
				
				
				
				
				
				
				
				
				
				
				
				
				
				
				
				
				
				
				
				
				
				
				
				
				
				
				
				
				
				
				
				
				
				
				
				
				
				
				
				
				
				
				
				
				
				
				
				
				
				
				
				
				
				
				
				
				
				
				
				
				
				
				
				
				
				
				
				
				
				
				
				
				
				
				
				
				
				
				
				
				
				
				
				
				
				
				
				
				
				
				
				
				
				
				
				
				
				
				
				
				
				
				
				
				
				
				
				
				
				
				
				
				
				
				
				
				
				
				
				
				
				
				
				
				
				
				
				
				
				
				
				
				
				
				
				
				
				
				
				
				
				
				
				
				
				
				
				
				
				
				
				
				
				
				
				
				
				
				
				
				
				
				
				
				
				
				
				
				
				
				
				
				
				
				
				
				
				
				
				
				
				
				
				
				
				
				
				
				
				
				
				
				
				
				
				
				
				
				
				
				
				
				
				
				
				
				
				
				
				
				
				
				
				
				
				
				
				
				
				
				
				
				
				
				
				
				
				
				
				
				
				
				
				
				
				
				
				
				
				
				
				
				
				
				
				
				
				
				
				
				
				
				
				
				
				
				
				
				
				
				
				
				
				
				
				
				
				
				
				
				
				
				
				
				
				
				
				
				
				
				
				
				
				
				
				
				
				
				
				
				
				
				
				
				
				
				
				
				
				
				
				
				
				
				
				
				
				
				
				
				
				
				
				
				
				
				
				
				
				
				
				
				
				
				
				
				
				
				
				
				
				
				
				
				
				
				
				
				
				
				
				
				
				
				
				
				
				
				
				
				
				
				
				
				
				
				
				
				
				
				
				
				
				
				
				
				
				
				
				
				
				
				
				
				
				
				
				
				
				
				
				
				
				
				
				
				
				
				
				
				
				
				
				
				
				
				
				
				
				
				
				
				
				
				
				
				
				
				
				
				
				
				
				
				
				
				
				
				
				
				
				
				
				
				
				
				
				
				
				
				
				
				
				
				
				
				
				
				
				
				
				
				
				
				
				
				
				
				
				
				
				
				
				
				
				
				
				
				
				
				
				
				
				
				
				
				
				
				
				
				
				
				
				
				
				
				
				
				
				
				
				
				
				
				
				
				
				
				
				
				
				
				
				
				
				
				
				
				
				
				
				
				
				
				
				
				
				
				
				
				
				
				
				
				
				
				
				
				
				
				
				
				
				
				
				
				
				
				
				
				
				
				
				
				
				
				
				
				
				
				
				
				
				
				
				
				
				
				
				
				
				
				
				
				
				
				
				
				
				
				
				
				
				
				
				
				
				
				
				
				
				
				
				
				
				
				
				
				
				
				
				
				
				
				
				
				
				
				
				
				
				
				
				
				
				
				
				
				
				
				
				
				
				
				
				
				
				
				
				
				
				
				
				
				
				
				
				
				
				
				
				
				
				
				
				
				
				
				
				
				
				
				
				
				
				
				
				
				
				
				
				
				
				
				
				
				
				
				
				
				
				
				
				
				
				
				
				
				
				
				
				
				
				
				
				
				
				
				
				
				
				
				
				
				
				
				
				
				
				
				
				
				
				
				
				
				
				
				
				
				
				
				
				
				
				
				
				
				
				
				
				
				
				
				
				
				
				
				
				
				
				
				
				
				
				
				
				
				
				
				
				
				
				
				
				
				
				
				
				
				
				
				
				
				
				
				
				
				
				
				
				
				
				
				
				
				
				
				
				
				
				
				
				
				
				
				
				
				
				
				
				
				
				
				
				
				
				
				
				
				
				
				
				
				
				
				
				
				
				
				
				
				
				
				
				
				
				
				
				
				
				
				
				
				
				
				
				
				
				
				
				
				
				
				
				
				
				
				
				
				
				
				
				
				
				
				
				
				
				
				
				
				
				
				
				
				
				
				
				
				
				
				
				
				
				
				
				
				
				
				
				
				
				
				
				
				
				
				
				
				
				
				
				
				
				
				
				
				
				
				
				
				
				
				
				
				
				
				
				
				
				
				
				
				
				
				
				
				
				
				
				
				
				
				
				
				
				
				
				
				
				
				
				
				
				
				
				
				
				
				
				
				
				
				
				
				
				
				
				
				
				
				
				
				
				
				
				
				
				
				
				
				
				
				
				
				
				
				
				
				
				
				
				
				
				
				
				
				
				
				
				
				
				
				
				
				
				
				
				
				
				
				
				
				
				
				
				
				
				
				
				
				
				
				
				
				
				
				
				
				
				
				
				
				
				
				
				
				
				
				
				
				
				
				
				
				
				
				
				
				
				
				
				
				
				
				
				
				
				
				
				
				
				
				
				
				
				
				
				
				
				
				
				
				
				
				
				
				
				
				
				
				
				
				
				
				
				
				
				
				
				
				
				
				
				
				
				
				
				
				
				
				
				
				
				
				
				
				
				
				
				
				
				
				
				
				
				
				
				
				
				
				
				
				
				
				
				
				
				
				
				
				
				
				
				
				
				
				
				
				
				
				
				
				
				
				
				
				
				
				
				
				
				
				
				
				
				
				
				
				
				
				
				
				
				
				
				
				
				
				
				
				
				
				
				
				
				
				
				
				
				
				
				
				
				
				
				
				
				
				
				
				
				
				
				
				
				
				
				
				
				
				
				
				
				
				
				
				
				
				
				
				
				
				
				
				
				
				
				
				
				
				
				
				
				
				
				
				
				
				
				
				
				
				
				
				
				
				
				
				
				
				
				
				
				
				
				
				
				
				
				
				
				
				
				
				
				
				
				
				
				
				
				
				
				
				
				
				
				
				
				
				
				
				
				
				
				
				
				
				
				
				
				
				
				
				
				
				
				
				
				
				
				
				
				
				
				
				
				
				
				
				
				
				
				
				
				
				
				
				
				
				
				
				
				
				
				
				
				
				
				
				
				
				
				
				
				
				
				
				
				
				
				
				
				
				
				
				
				
				
				
				
				
				
				
				
				
				
				
				
				
				
				
				
				
				
				
				
				
				
				
				
				
				
				
				
				
				
				
				
				
				
				
				
				
				
				
				
				
				
				
				
				
				
				
				
				
				
				
				
				
				
				
				
				
				
				
				
				
				
				
				
				
				
				
				
				
				
				
				
				
				
